city,latitude,longitude,country,population
Hamilton,32.2942,-64.7839,Bermuda,52320
Andorra,42.5,1.5165,Andorra,53998
Cayenne,4.933,-52.33,French Guiana,61550
Apia,-13.8415,-171.7386,Samoa,61916
Belize City,17.4987,-88.1884,Belize,63028
Oranjestad,12.5304,-70.029,Aruba,68775
Honiara,-9.438,159.9498,Solomon Islands,76328
São Tomé,0.3334,6.7333,Sao Tome And Principe,88219
Nouméa,-22.2625,166.4443,New Caledonia,93060
Thimphu,27.473,89.639,Bhutan,98676
Luxembourg,49.6117,6.13,Luxembourg,107260
Manzini,-26.495,31.388,Swaziland,110537
Mbabane,-26.3167,31.1333,Swaziland,90138
Malé,4.1667,73.4999,Maldives,112927
Praia,14.9167,-23.5167,Cabo Verde,113364
Mindelo,16.8838,-25,Cabo Verde,70611
Maina,13.4692,144.7332,Guam,122411
Moroni,-11.7042,43.2402,Comoros,128698
Papeete,-17.5334,-149.5667,French Polynesia,131695
Pointe-à-Pitre,16.2415,-61.533,Guadeloupe,145511
Podgorica,42.466,19.2663,Montenegro,145850
Willemstad,12.2004,-69.02,Curaçao,146813
Reykjavík,64.15,-21.95,Iceland,166212
Bata,1.87,9.77,Equatorial Guinea,173046
Malabo,3.75,8.7833,Equatorial Guinea,155963
Suva,-18.133,178.4417,Fiji,175399
Lautoka,-17.6161,177.4666,Fiji,55894
Yei,4.0904,30.68,South Sudan,185000
Malakal,9.5369,31.656,South Sudan,160765
Wau,7.7,27.99,South Sudan,127384
Juba,4.83,31.58,South Sudan,111975
Gogrial,8.5337,28.1167,South Sudan,50065
Gibraltar,36.1324,-5.3781,Gibraltar,187083
St.-Denis,-20.8789,55.4481,Reunion,190047
Bridgetown,13.102,-59.6165,Barbados,191152
Brikama,13.2804,-16.6599,"""Gambia"," The""",195136
Gaborone,-24.6463,25.9119,Botswana,208411
Francistown,-21.17,27.5,Botswana,89979
Lobatse,-25.2196,25.68,Botswana,69804
Molepolole,-24.4,25.51,Botswana,63248
Mahalapye,-23.1,26.82,Botswana,50744
Nicosia,35.1667,33.3666,Cyprus,224300
Lemosos,34.6754,33.0333,Cyprus,154000
Nassau,25.0834,-77.35,"""Bahamas"," The""",227940
Dili,-8.5594,125.5795,Timor-Leste,234331
Jaffna,9.675,80.005,Sri Lanka,250000
Colombo,6.932,79.8578,Sri Lanka,217000
Moratuwa,6.7804,79.88,Sri Lanka,200000
Batticaloa,7.717,81.7,Sri Lanka,129222
Anuradhapura,8.35,80.3833,Sri Lanka,118302
Sri Jawewardenepura Kotte,6.9,79.95,Sri Lanka,115826
Kandy,7.28,80.67,Sri Lanka,111701
Trincomalee,8.569,81.233,Sri Lanka,108420
Kilinochchi,9.4004,80.3999,Sri Lanka,103717
Galle,6.03,80.24,Sri Lanka,99478
Matara,5.949,80.5428,Sri Lanka,68244
Fort-de-France,14.6104,-61.08,Martinique,253995
Paramaribo,5.835,-55.167,Suriname,254169
Georgetown,6.802,-58.167,Guyana,264350
Windhoek,-22.57,17.0835,Namibia,268132
Rundu,-17.92,19.7499,Namibia,58172
Walvis Bay,-22.9575,14.5053,Namibia,52058
Port Moresby,-9.4647,147.1925,Papua New Guinea,283733
Lae,-6.733,146.99,Papua New Guinea,131052
Madang,-5.2248,145.7853,Papua New Guinea,62023
Mt. Hagen,-5.8632,144.2168,Papua New Guinea,59064
Port-of-Spain,10.652,-61.517,Trinidad And Tobago,294934
San Fernando,10.2805,-61.4594,Trinidad And Tobago,166039
Bandar Seri Begawan,4.8833,114.9333,Brunei,296500
Ljubljana,46.0553,14.515,Slovenia,314807
Maribor,46.5405,15.65,Slovenia,114228
Bujumbura,-3.3761,29.36,Burundi,331700
Muyinga,-2.8523,30.3173,Burundi,71076
Maseru,-29.3167,27.4833,Lesotho,361324
Mafetang,-29.8166,27.25,Lesotho,57059
Valletta,35.8997,14.5147,Malta,368250
Tallinn,59.4339,24.728,Estonia,394024
Tartu,58.3839,26.7099,Estonia,101092
Narva,59.3776,28.1603,Estonia,66980
Bissau,11.865,-15.5984,Guinea-Bissau,403339
Bratislava,48.15,17.117,Slovakia,423737
Košice,48.7304,21.25,Slovakia,236563
Prešov,48.9997,21.2394,Slovakia,94718
Žilina,49.2198,18.7494,Slovakia,87625
Banská Bystrica,48.7333,19.15,Slovakia,82336
Trnava,48.3666,17.6,Slovakia,69785
Skopje,42,21.4335,Macedonia,494087
Tetovo,42.0092,20.9701,Macedonia,119132
Bitola,41.0391,21.3395,Macedonia,86528
Vilnius,54.6834,25.3166,Lithuania,542366
Kaunas,54.9504,23.88,Lithuania,374643
Klaipėda,55.7204,21.1199,Lithuania,192307
Šiauliai,55.9386,23.325,Lithuania,133528
Panevežys,55.74,24.37,Lithuania,127405
Manama,26.2361,50.5831,Bahrain,563920
Macau,22.203,113.545,Macau,568700
Libreville,0.3854,9.458,Gabon,578156
Port-Gentil,-0.72,8.78,Gabon,116836
Port Louis,-20.1666,57.5,Mauritius,595491
Curepipe,-20.3162,57.5166,Mauritius,299975
Asmara,15.3333,38.9333,Eritrea,620802
Mendefera,14.886,38.8163,Eritrea,257390
Keren,15.6804,38.45,Eritrea,150000
Massawa,15.6101,39.45,Eritrea,142564
Assab,13.01,42.73,Eritrea,105496
Lilongwe,-13.9833,33.7833,Malawi,646750
Blantyre,-15.79,34.9899,Malawi,584877
Mzuzu,-11.46,34.02,Malawi,110201
Mangochi,-14.4596,35.27,Malawi,97711
Zomba,-15.39,35.31,Malawi,80932
Salima,-13.7829,34.4333,Malawi,71181
Nkhotakota,-12.9163,34.3,Malawi,59854
Chișinău,47.005,28.8577,Moldova,688134
Tiraspol,46.8531,29.64,Moldova,157000
Bălți,47.7591,27.9053,Moldova,151355
Cahul,45.9079,28.1944,Moldova,63407
Sarajevo,43.85,18.383,Bosnia And Herzegovina,696731
Banja Luka,44.7804,17.18,Bosnia And Herzegovina,221738
Zenica,44.22,17.92,Bosnia And Herzegovina,164423
Mostar,43.3505,17.82,Bosnia And Herzegovina,163067
Tuzla,44.5505,18.68,Bosnia And Herzegovina,144334
Prijedor,44.9804,16.7,Bosnia And Herzegovina,104858
Zagreb,45.8,16,Croatia,722526
Split,43.5204,16.47,Croatia,214741
Rijeka,45.33,14.45,Croatia,170992
Slavonski Brod,45.1603,18.0156,Croatia,97718
Osijek,45.5504,18.68,Croatia,95077
Zadar,44.1201,15.2623,Croatia,71258
Pula,44.8687,13.8481,Croatia,61599
Karlovac,45.4872,15.5478,Croatia,55063
Ashgabat,37.95,58.3833,Turkmenistan,727700
Türkmenabat,39.11,63.58,Turkmenistan,234817
Daşoguz,41.84,59.965,Turkmenistan,201424
Mary,37.6,61.8333,Turkmenistan,178708
Balkanabat,39.5124,54.3649,Turkmenistan,110827
Türkmenbaşy,40.023,52.9697,Turkmenistan,68292
Tejen,37.3786,60.496,Turkmenistan,67294
Muscat,23.6133,58.5933,Oman,734697
As Sib,23.6802,58.1825,Oman,237816
Salalah,17.0255,54.0852,Oman,203877
Suhar,24.362,56.7344,Oman,151349
Ibri,23.2254,56.517,Oman,101640
Nizwa,22.9264,57.5314,Oman,72076
Nouakchott,18.0864,-15.9753,Mauritania,742144
Nema,16.6171,-7.25,Mauritania,200000
Nouadhibou,20.9,-17.056,Mauritania,86738
Kiffa,16.62,-11.4,Mauritania,73930
Zouirat,22.7304,-12.4833,Mauritania,56345
Riga,56.95,24.1,Latvia,742572
Daugavpils,55.88,26.51,Latvia,111564
Liepaga,56.51,21.01,Latvia,85132
Jelgava,56.6527,23.7128,Latvia,67207
Vientiane,17.9667,102.6,Laos,754000
Louangphrabang,19.8845,102.1416,Laos,107142
Pakxe,15.1221,105.8183,Laos,102775
Savannakhet,16.5376,104.773,Laos,84898
Thakhek,17.4112,104.8361,Laos,76928
Cotonou,6.4,2.52,Benin,762000
Porto-Novo,6.4833,2.6166,Benin,300000
Djougou,9.7004,1.68,Benin,202810
Parakou,9.34,2.62,Benin,188853
Kandi,11.1304,2.94,Benin,109701
Lokossa,6.615,1.715,Benin,86971
Ouidah,6.3604,2.09,Benin,83503
Abomey,7.1904,1.99,Benin,82154
Natitingou,10.3204,1.39,Benin,80892
Freetown,8.47,-13.2342,Sierra Leone,827000
Bo,7.97,-11.74,Sierra Leone,174354
Kenema,7.8804,-11.19,Sierra Leone,143137
Makeni,8.8804,-12.05,Sierra Leone,87679
Koidu,8.4405,-10.85,Sierra Leone,87539
Bangui,4.3666,18.5583,Central African Republic,831925
Mbaïki,3.8704,18,Central African Republic,67132
Bossangoa,6.4837,17.45,Central African Republic,63064
Bambari,5.762,20.6672,Central African Republic,62098
Berbérati,4.25,15.78,Central African Republic,61815
Kaga Bandoro,6.9804,19.18,Central African Republic,56520
Oslo,59.9167,10.75,Norway,835000
Bergen,60.391,5.3245,Norway,213585
Stavanger,58.97,5.68,Norway,173132
Trondheim,63.4167,10.4167,Norway,147139
Bærum,59.9135,11.3472,Norway,113659
Drammen,59.7572,10.1907,Norway,90722
Skien,59.2,9.6,Norway,73330
Kristiansand,58.1666,8,Norway,63814
Tromsø,69.6351,18.992,Norway,52436
Bishkek,42.8731,74.5852,Kyrgyzstan,837000
Osh,40.5404,72.79,Kyrgyzstan,391277
Jalal Abad,40.9429,73.0025,Kyrgyzstan,248899
Tokmak,42.8299,75.2846,Kyrgyzstan,112860
Kara Balta,42.8306,73.8857,Kyrgyzstan,74133
Karakol,42.492,78.3818,Kyrgyzstan,70171
Naryn,41.4263,75.9911,Kyrgyzstan,52300
Kigali,-1.9536,30.0605,Rwanda,860000
Nyanza,-2.3496,29.74,Rwanda,225209
Gitarama,-2.0696,29.76,Rwanda,87613
Ruhengeri,-1.4996,29.63,Rwanda,86685
Gisenyi,-1.6847,29.2629,Rwanda,83623
Butare,-2.5896,29.73,Rwanda,77000
Byumba,-1.5796,30.06,Rwanda,70593
Ulaanbaatar,47.9167,106.9166,Mongolia,885000
Erdenet,49.0533,104.1183,Mongolia,79647
Darhan,49.6167,106.35,Mongolia,74738
Kathmandu,27.7167,85.3166,Nepal,895000
Lalitpur,27.6666,85.3333,Nepal,337785
Hetauda,27.4167,85.0334,Nepal,232334
Pokhara,28.264,83.972,Nepal,200000
Biratnagar,26.4837,87.2833,Nepal,182324
Birganj,27.0004,84.8666,Nepal,133238
Dhangarhi,28.695,80.593,Nepal,92294
Nepalganj,28.0503,81.6167,Nepal,64400
Bhairawa,27.5333,83.3833,Nepal,63367
Tirana,41.3275,19.8189,Albania,895350
Elbasan,41.1215,20.0838,Albania,165010
Shkodër,42.0685,19.5188,Albania,155767
Durrës,41.3178,19.4482,Albania,142432
Vlorë,40.4774,19.4982,Albania,89546
Fier,40.73,19.573,Albania,82297
Korçë,40.6167,20.7667,Albania,58259
Niamey,13.5167,2.1167,Niger,915000
Maradi,13.4916,7.0964,Niger,232555
Zinder,13.8,8.9833,Niger,230358
Agadez,16.9959,7.9828,Niger,117770
Tahoua,14.9,5.2599,Niger,115956
Arlit,18.82,7.33,Niger,100000
Birni Nkonni,13.7904,5.2599,Niger,65252
Managua,12.153,-86.2685,Nicaragua,920000
León,12.4356,-86.8794,Nicaragua,164441
Chinandega,12.6304,-87.13,Nicaragua,139023
Masaya,11.969,-86.095,Nicaragua,130113
Matagalpa,12.9171,-85.9167,Nicaragua,109089
Estelí,13.09,-86.36,Nicaragua,107839
Granada‎,11.9337,-85.95,Nicaragua,105219
Juigalpa,12.11,-85.38,Nicaragua,54731
Jinotega,13.091,-86,Nicaragua,51073
Djibouti,11.595,43.148,Djibouti,923000
Kingston,17.9771,-76.7674,Jamaica,937700
Spanish Town,17.9833,-76.95,Jamaica,432704
May Pen,17.9666,-77.2333,Jamaica,135142
Montego Bay,18.4667,-77.9167,Jamaica,126008
Half Way Tree,18.0333,-76.8,Jamaica,96494
Tegucigalpa,14.102,-87.2175,Honduras,946000
San Pedro Sula,15.5,-88.03,Honduras,680091
La Ceiba,15.7631,-86.797,Honduras,145926
Choluteca,13.3007,-87.1908,Honduras,99429
Comayagua,14.4604,-87.65,Honduras,71142
Ndjamena,12.1131,15.0491,Chad,989000
Bongor,10.2859,15.3872,Chad,193941
Sarh,9.15,18.39,Chad,169196
Abéché,13.84,20.83,Chad,158317
Moundou,8.55,16.09,Chad,156705
Kelo,9.3171,15.8,Chad,96224
Guatemala,14.6211,-90.527,Guatemala,1024000
Quetzaltenango,14.83,-91.52,Guatemala,575263
El Progreso,14.85,-90.0167,Guatemala,147197
San Luis,16.2,-89.44,Guatemala,132470
Escuintla,14.3004,-90.78,Guatemala,107638
Huehuetenango,15.3204,-91.47,Guatemala,85992
Chimaltenango,14.662,-90.82,Guatemala,82370
Totonicapán,14.914,-91.358,Guatemala,69734
Cobán,15.47,-90.38,Guatemala,65194
Mazatenango,14.5304,-91.51,Guatemala,64652
Puerto Barrios,15.7175,-88.5927,Guatemala,56605
Jutiapa,14.29,-89.9,Guatemala,50681
Monrovia,6.3106,-10.8048,Liberia,1041000
Dublin,53.3331,-6.2489,Ireland,1059000
Cork,51.8986,-8.4958,Ireland,188907
Limerick,52.6647,-8.6231,Ireland,90054
Galway,53.2724,-9.0488,Ireland,75594
Amman,31.95,35.9333,Jordan,1060000
Az Zarqa,32.07,36.1,Jordan,894691
Irbid,32.55,35.85,Jordan,650000
As Salt,32.0392,35.7272,Jordan,140689
Al Aqabah,29.527,35.0777,Jordan,95048
Al Karak,31.1851,35.7047,Jordan,80062
Al Mafraq,32.2833,36.2333,Jordan,57118
Ma'an,30.192,35.736,Jordan,50350
København,55.6786,12.5635,Denmark,1085000
Århus,56.1572,10.2107,Denmark,237551
Odense,55.4004,10.3833,Denmark,158222
Aalborg,57.0337,9.9166,Denmark,122219
Esbjerg,55.467,8.45,Denmark,72205
Vejle,55.709,9.535,Denmark,51177
Dushanbe,38.56,68.7739,Tajikistan,1086244
Khujand,40.29,69.6199,Tajikistan,437684
Qurghonteppa,37.8373,68.7713,Tajikistan,311574
Konibodom,40.2922,70.4272,Tajikistan,259876
Uroteppa,39.9219,69.0015,Tajikistan,156621
Kulob,37.9212,69.7757,Tajikistan,115164
Belgrade,44.8186,20.468,Serbia,1099000
Niš,43.3304,21.9,Serbia,250000
Novi Sad,45.2504,19.8499,Serbia,225457
Kragujevac,44.02,20.92,Serbia,171197
Čačak,43.8897,20.3301,Serbia,170000
Subotica,46.07,19.68,Serbia,100000
Zrenjanin,45.3786,20.3995,Serbia,64053
Tbilisi,41.725,44.7908,Georgia,1100000
Kutaisi,42.25,42.73,Georgia,183945
Rustavi,41.5704,45.05,Georgia,157063
Batumi,41.6,41.63,Georgia,155542
Sukhumi,43.02,41.02,Georgia,81546
Mogadishu,2.0667,45.3667,Somalia,1100000
Kismaayo,-0.3566,42.5183,Somalia,234852
Jamaame,0.0722,42.7506,Somalia,185270
Baydhabo,3.12,43.65,Somalia,129839
Jawhar,2.767,45.5166,Somalia,111308
Beledweyne,4.74,45.2,Somalia,62945
Gaalkacyo,6.77,47.43,Somalia,61200
Yerevan,40.1812,44.5136,Armenia,1102000
Gyumri,40.7894,43.8475,Armenia,148381
Vanadzor,40.8128,44.4883,Armenia,101098
Helsinki,60.1756,24.9341,Finland,1115000
Tampere,61.5,23.75,Finland,259279
Turku,60.4539,22.255,Finland,175945
Oulu,65,25.47,Finland,136752
Lahti,60.9939,25.6649,Finland,98826
Jyväskylä,62.2603,25.75,Finland,98136
Kuopio,62.8943,27.6949,Finland,91900
Pori,61.4789,21.7749,Finland,76772
Lappeenranta,61.0671,28.1833,Finland,59276
Vaasa,63.1,21.6,Finland,57014
Joensuu,62.6,29.7666,Finland,53388
Ouagadougou,12.3703,-1.5247,Burkina Faso,1149000
Bobo Dioulasso,11.18,-4.29,Burkina Faso,360106
Koudougou,12.2505,-2.37,Burkina Faso,87347
Ouahigouya,13.5704,-2.42,Burkina Faso,79504
Banfora,10.6304,-4.76,Burkina Faso,60288
Prague,50.0833,14.466,Czechia,1162000
Ostrava,49.8304,18.25,Czechia,478963
Brno,49.2004,16.61,Czechia,388277
Pizen,49.7404,13.36,Czechia,164180
Zlín,49.2304,17.65,Czechia,124610
Pardubice,50.0404,15.76,Czechia,107064
Liberec,50.8,15.08,Czechia,102175
Olomouc,49.63,17.25,Czechia,101268
České Budějovice,48.98,14.46,Czechia,98851
Hradec Králové,50.206,15.812,Czechia,95195
Usti Nad Labem,50.663,14.081,Czechia,94105
Jihlava,49.4004,15.5833,Czechia,53921
Sofia,42.6833,23.3167,Bulgaria,1185000
Plovdiv,42.154,24.754,Bulgaria,340494
Varna,43.2156,27.8953,Bulgaria,312770
Burgas,42.5146,27.4746,Bulgaria,195966
Ruse,43.8537,25.9733,Bulgaria,184270
Stara Zagora,42.4231,25.6227,Bulgaria,143431
Pleven,43.4238,24.6134,Bulgaria,118675
Sliven,42.6794,26.33,Bulgaria,96368
Dobrich,43.5851,27.84,Bulgaria,94831
Shumen,43.27,26.9294,Bulgaria,87283
Pernik,42.61,23.0227,Bulgaria,82467
Khaskovo,41.9438,25.5633,Bulgaria,79699
Vratsa,43.21,23.5625,Bulgaria,71633
Turnovo,43.0862,25.6555,Bulgaria,53115
Kyustendil,42.2843,22.6911,Bulgaria,51067
Almaty,43.325,76.915,Kazakhstan,1209000
Shymkent,42.32,69.595,Kazakhstan,465392
Qaraghandy,49.885,73.115,Kazakhstan,451800
Taraz,42.9,71.365,Kazakhstan,358153
Astana,51.1811,71.4278,Kazakhstan,345604
Pavlodar,52.3,76.95,Kazakhstan,329002
Oskemen,49.99,82.6149,Kazakhstan,319067
Semey,50.435,80.275,Kazakhstan,311353
Qyzylorda,44.8,65.465,Kazakhstan,300000
Aqtobe,50.28,57.17,Kazakhstan,262457
Oostanay,53.2209,63.6283,Kazakhstan,236901
Petropavlovsk,54.88,69.22,Kazakhstan,228238
Oral,51.2711,51.335,Kazakhstan,209788
Atyrau,47.1127,51.92,Kazakhstan,182753
Temirtau,50.065,72.965,Kazakhstan,170600
Mangyshlak,43.6905,51.1417,Kazakhstan,147443
Kokshetau,53.3,69.42,Kazakhstan,128873
Ekibastuz,51.73,75.3199,Kazakhstan,127868
Rudny,52.9527,63.13,Kazakhstan,124000
Zhezqazghan,47.78,67.77,Kazakhstan,104357
Geneva,46.21,6.14,Switzerland,1240000
Zürich,47.38,8.55,Switzerland,1108000
Basel,47.5804,7.59,Switzerland,830000
Bern,46.9167,7.467,Switzerland,275329
Lausanne,46.5304,6.65,Switzerland,265702
Luzern,47.0504,8.28,Switzerland,250000
Lugano,46.0004,8.9667,Switzerland,105388
Biel,47.1666,7.25,Switzerland,78708
Saint Gallen,47.423,9.362,Switzerland,70572
Stockholm,59.3508,18.0973,Sweden,1264000
Göteborg,57.75,12,Sweden,537797
Malmö,55.5833,13.0333,Sweden,269349
Uppsala,59.8601,17.64,Sweden,133117
Västerås,59.63,16.54,Sweden,107194
Örebro,59.2803,15.22,Sweden,98573
Linköping,58.41,15.6299,Sweden,96732
Helsingborg,56.0505,12.7,Sweden,91304
Jönköping,57.7713,14.165,Sweden,89780
Norrköping,58.5954,16.1787,Sweden,88639
Umeå,63.83,20.24,Sweden,78197
Karlstad,59.3671,13.4999,Sweden,74141
Sundsvall,62.4001,17.3167,Sweden,73389
Gävle,60.667,17.1666,Sweden,68635
Borås,57.7304,12.92,Sweden,65008
Växjö,56.8837,14.8167,Sweden,59600
Halmstad,56.6718,12.8556,Sweden,55657
Panama City,8.968,-79.533,Panama,1281000
Colón,9.365,-79.875,Panama,204000
David,8.4333,-82.4333,Panama,110037
Balboa,8.95,-79.5667,Panama,62882
San José,9.935,-84.0841,Costa Rica,1284000
Alajuela,10.02,-84.23,Costa Rica,387743
Cartago,9.87,-83.93,Costa Rica,196946
Puerto Limon,10,-83.0333,Costa Rica,85001
Puntarenas,9.9702,-84.8336,Costa Rica,57102
Lusaka,-15.4166,28.2833,Zambia,1328000
Kitwe,-12.81,28.22,Zambia,404901
Ndola,-12.9999,28.65,Zambia,396339
Kasama,-10.1996,31.1799,Zambia,200000
Kabwe,-14.44,28.45,Zambia,188979
Chingola,-12.5396,27.85,Zambia,182015
Livingstone,-17.86,25.86,Zambia,165480
Mufulira,-12.55,28.26,Zambia,153624
Luanshya,-13.1333,28.4,Zambia,151993
Chipata,-13.6296,32.64,Zambia,85963
Chililabombwe,-12.3696,27.82,Zambia,82068
Solwezi,-12.1796,26.4,Zambia,65000
Mazabuka,-15.86,27.76,Zambia,64006
Mongu,-15.2796,23.12,Zambia,52534
Brazzaville,-4.2592,15.2847,Congo (Brazzaville),1355000
Pointe-Noire,-4.77,11.88,Congo (Brazzaville),659084
Loubomo,-4.1796,12.67,Congo (Brazzaville),103894
Kayes,-4.18,13.28,Congo (Brazzaville),62521
Auckland,-36.8481,174.763,New Zealand,1377200
Wellington,-41.3,174.7833,New Zealand,393400
Manukau,-37,174.885,New Zealand,375600
Christchurch,-43.535,172.63,New Zealand,363200
Waitakere,-36.8524,174.5543,New Zealand,208100
North Shore,-36.7913,174.7758,New Zealand,205605
Hamilton,-37.7783,175.2896,New Zealand,148200
Tauranga,-37.6964,176.1536,New Zealand,121500
Dunedin,-45.8854,170.491,New Zealand,117700
Lower Hutt,-41.2037,174.9123,New Zealand,102400
Palmerston North,-40.3527,175.6072,New Zealand,82400
Nelson,-41.2926,173.2474,New Zealand,60800
Napier,-39.49,176.9265,New Zealand,57800
Rotorua,-38.1317,176.2483,New Zealand,56200
Porirua,-41.1219,174.8524,New Zealand,52500
New Plymouth,-39.0556,174.0748,New Zealand,52500
Whangarei,-35.7256,174.323,New Zealand,52200
Dubai,25.23,55.28,United Arab Emirates,1379000
Sharjah,25.3714,55.4065,United Arab Emirates,1103027
Abu Dhabi,24.4667,54.3666,United Arab Emirates,603492
Al Ayn,24.2305,55.74,United Arab Emirates,408733
Ras al Khaymah,25.7915,55.9428,United Arab Emirates,160849
Al Fujayrah,25.1234,56.3375,United Arab Emirates,94163
The Hague,52.08,4.27,Netherlands,1406000
Amsterdam,52.35,4.9166,Netherlands,1031000
Rotterdam,51.92,4.48,Netherlands,1005000
Utrecht,52.1003,5.12,Netherlands,640000
Eindhoven,51.43,5.5,Netherlands,398053
Haarlem,52.3804,4.63,Netherlands,349957
Groningen,53.2204,6.58,Netherlands,216688
Arnhem,51.988,5.923,Netherlands,141674
's-Hertogenbosch,51.6833,5.3167,Netherlands,134520
Leeuwarden,53.2504,5.7834,Netherlands,125778
Maastricht,50.853,5.677,Netherlands,122378
Zwolle,52.524,6.097,Netherlands,111805
Assen,53,6.55,Netherlands,62237
Kampala,0.3167,32.5833,Uganda,1420000
Mbale,1.0904,34.17,Uganda,402368
Jinja,0.4404,33.1999,Uganda,301619
Arua,3.0204,30.9,Uganda,250000
Entebbe,0.0604,32.46,Uganda,175128
Tororo,0.7104,34.17,Uganda,150000
Gulu,2.78,32.28,Uganda,146858
Lira,2.2604,32.89,Uganda,135445
Mbarara,-0.5996,30.65,Uganda,83700
Bombo,0.5833,32.5333,Uganda,75000
Kasese,0.2325,29.9883,Uganda,67269
Masaka,-0.3296,31.73,Uganda,65373
Kitgum,3.3004,32.87,Uganda,56891
San Salvador,13.71,-89.203,El Salvador,1433000
Santa Ana,13.9946,-89.5598,El Salvador,234478
San Miguel,13.4833,-88.1833,El Salvador,201563
Sonsonate,13.72,-89.73,El Salvador,168947
Nueva San Salvador,13.674,-89.29,El Salvador,124694
Usulután,13.346,-88.432,El Salvador,51910
Maputo,-25.9553,32.5892,Mozambique,1446000
Matola,-25.9696,32.46,Mozambique,543907
Beira,-19.82,34.87,Mozambique,530604
Nampula,-15.136,39.293,Mozambique,388526
Chimoio,-19.12,33.47,Mozambique,256936
Nacala,-14.5186,40.715,Mozambique,224795
Quelimane,-17.88,36.89,Mozambique,188964
Tete,-16.17,33.58,Mozambique,129316
Xai-Xai,-25.04,33.64,Mozambique,128805
Maxixe,-23.866,35.3886,Mozambique,119868
Inhambane,-23.858,35.3398,Mozambique,115776
Pemba,-12.983,40.5323,Mozambique,110643
Lichinga,-13.3,35.24,Mozambique,109839
Dondo,-19.6196,34.73,Mozambique,78648
Cuamba,-14.7896,36.54,Mozambique,73268
Montepuez,-13.1196,39,Mozambique,72279
Mocuba,-16.8496,38.26,Mozambique,68984
Angoche,-16.23,39.91,Mozambique,57835
Mocambique,-15.0399,40.6822,Mozambique,54315
Doha,25.2866,51.533,Qatar,1450000
Lomé,6.1319,1.2228,Togo,1452000
Sokodé,8.9905,1.15,Togo,117811
Kpalimé,6.9004,0.63,Togo,100479
Atakpamé,7.53,1.12,Togo,80683
Bassar,9.261,0.789,Togo,61845
Phnom Penh,11.55,104.9166,Cambodia,1466000
Battambang,13.1,103.2,Cambodia,154773
Siem Reap,13.3666,103.85,Cambodia,109398
Kampong Cham,12.0004,105.45,Cambodia,83233
Kompong Chhnang,12.2505,104.6666,Cambodia,75244
Prey Veng,11.484,105.324,Cambodia,74000
Pursat,12.5337,103.9167,Cambodia,52476
Sisophon,13.5838,102.9833,Cambodia,50302
Kampot,10.6171,104.1833,Cambodia,50105
Conakry,9.5315,-13.6802,Guinea,1494000
Gueckedou,8.554,-10.151,Guinea,221715
Nzérékoré,7.76,-8.83,Guinea,168121
Labé,11.32,-12.3,Guinea,140575
Kindia,10.06,-12.87,Guinea,117062
Boké,10.94,-14.3,Guinea,116270
Kankan,10.39,-9.31,Guinea,114009
Mamou,10.3804,-12.1,Guinea,71153
Kissidougou,9.1905,-10.12,Guinea,66815
Siguiri,11.4171,-9.1666,Guinea,50159
Bamako,12.65,-8,Mali,1494000
Sikasso,11.3204,-5.68,Mali,225753
Ségou,13.44,-6.26,Mali,122952
Gao,16.2666,-0.05,Mali,116967
Mopti,14.49,-4.18,Mali,108456
Koutiala,12.3904,-5.47,Mali,104927
Kayes,14.45,-11.44,Mali,77207
Timbuktu,16.7666,-3.0166,Mali,68872
Kati,12.7504,-8.08,Mali,66895
Markala,13.6704,-6.07,Mali,53738
Montevideo,-34.858,-56.1711,Uruguay,1513000
Rivera,-30.8996,-55.56,Uruguay,200000
Punta del Este,-34.97,-54.95,Uruguay,159000
Salto,-31.3903,-57.9687,Uruguay,105690
Paysandú,-32.33,-58.08,Uruguay,79016
Melo,-32.3595,-54.18,Uruguay,55494
Maldonado,-34.91,-54.96,Uruguay,55478
Tacuarembó,-31.71,-55.98,Uruguay,54277
Harare,-17.8178,31.0447,Zimbabwe,1572000
Bulawayo,-20.17,28.58,Zimbabwe,699385
Chitungwiza,-18,31.1,Zimbabwe,340360
Mutare,-18.97,32.65,Zimbabwe,249365
Gweru,-19.45,29.82,Zimbabwe,183358
Kwekwe,-18.9296,29.8,Zimbabwe,99149
Kadoma,-18.33,29.9099,Zimbabwe,79174
Masvingo,-20.0596,30.82,Zimbabwe,76311
Chinhoyi,-17.3596,30.18,Zimbabwe,61739
Budapest,47.5,19.0833,Hungary,1679000
Miskolc,48.1004,20.78,Hungary,247757
Debrecen,47.5305,21.63,Hungary,231286
Szeged,46.2504,20.15,Hungary,187765
Pécs,46.0804,18.22,Hungary,186262
Nyíregyháza,47.9653,21.7187,Hungary,176880
Székesfehérvár,47.1947,18.4081,Hungary,144319
Győr,47.7004,17.63,Hungary,136081
Kecskemét,46.9,19.7,Hungary,113895
Szombathely,47.2253,16.6287,Hungary,109518
Szolnok,47.1864,20.1794,Hungary,109261
Kaposvár,46.367,17.8,Hungary,108528
Tatabánya,47.55,18.433,Hungary,70541
Békéscsaba,46.672,21.101,Hungary,65206
Veszprém,47.091,17.911,Hungary,62023
Zalaegerszeg,46.844,16.84,Hungary,61898
Eger,47.895,20.383,Hungary,56647
Antananarivo,-18.9166,47.5166,Madagascar,1697000
Antsirabe,-19.85,47.0333,Madagascar,307921
Toamasina,-18.1818,49.405,Madagascar,210226
Fianarantsoa,-21.4333,47.0833,Madagascar,184184
Mahajanga,-15.67,46.345,Madagascar,154657
Toliara,-23.3568,43.69,Madagascar,115319
Antsiranana,-12.2765,49.3115,Madagascar,82937
Brussels,50.8333,4.3333,Belgium,1743000
Antwerpen,51.2204,4.415,Belgium,920000
Liège,50.63,5.58,Belgium,749110
Gent,51.03,3.7,Belgium,444336
Charleroi,50.4204,4.45,Belgium,345367
Brugge,51.2204,3.23,Belgium,146469
Namur,50.4704,4.87,Belgium,106284
Mons,50.446,3.939,Belgium,91277
Hasselt,50.964,5.484,Belgium,69222
Minsk,53.9,27.5666,Belarus,1805000
Homyel,52.43,31,Belarus,480951
Mahilyow,53.8985,30.3247,Belarus,369200
Vitsyebsk,55.1887,30.1853,Belarus,342700
Hrodna,53.6779,23.8341,Belarus,317365
Brest,52.1,23.7,Belarus,300715
Babruysk,53.1266,29.1928,Belarus,220517
Baranavichy,53.1368,26.0134,Belarus,168772
Barysaw,54.226,28.4922,Belarus,155389
Orsha,54.5153,30.4215,Belarus,135206
Pinsk,52.1279,26.0941,Belarus,130777
Mazyr,52.046,29.2722,Belarus,112137
Maladzyechna,54.3188,26.8653,Belarus,101300
Lida,53.8885,25.2846,Belarus,100216
Polatsk,55.4894,28.786,Belarus,82258
Beirut,33.872,35.5097,Lebanon,1846000
Trablous,34.42,35.87,Lebanon,530000
Saida,33.563,35.3688,Lebanon,173894
Nabatiye et Tahta,33.3833,35.45,Lebanon,80000
Zahlé,33.8501,35.9042,Lebanon,78145
Asunción,-25.2964,-57.6415,Paraguay,1870000
San Lorenzo,-25.34,-57.52,Paraguay,500000
Encarnación,-27.3472,-55.8739,Paraguay,357119
Ciudad del Este,-25.5167,-54.6161,Paraguay,320872
Pedro Juan Caballero,-22.5446,-55.76,Paraguay,102787
Coronel Oviedo,-25.45,-56.44,Paraguay,88101
Concepción,-23.4064,-57.4344,Paraguay,59118
Douala,4.0604,9.71,Cameroon,1906000
Yaounde,3.8667,11.5167,Cameroon,1611000
Bamenda,5.96,10.15,Cameroon,445299
Garoua,9.3,13.39,Cameroon,436899
Maroua,10.5956,14.3247,Cameroon,319941
Bafoussam,5.4904,10.4099,Cameroon,290768
Ngaoundéré,7.3204,13.58,Cameroon,231357
Bertoua,4.5804,13.68,Cameroon,218111
Limbe,4.0304,9.19,Cameroon,212474
Edéa,3.8005,10.12,Cameroon,203149
Kumba,4.6404,9.44,Cameroon,144413
Kumbo,6.2204,10.68,Cameroon,125486
Nkongsamba,4.9604,9.94,Cameroon,117063
Bafang,5.1704,10.18,Cameroon,93145
Foumban,5.7304,10.9,Cameroon,92673
Buea,4.155,9.231,Cameroon,90088
Ebolowa,2.9,11.15,Cameroon,87875
Guider,9.9304,13.94,Cameroon,84647
Mbalmayo,3.5204,11.5,Cameroon,80206
Meiganga,6.5205,14.29,Cameroon,80100
Bucharest,44.4334,26.0999,Romania,1942000
Iași,47.1683,27.5749,Romania,325914
Cluj-Napoca,46.7884,23.5984,Romania,316748
Timișoara,45.7588,21.2234,Romania,315053
Galați,45.4559,28.0459,Romania,311156
Brașov,45.6475,25.6072,Romania,311044
Craiova,44.3263,23.8259,Romania,304142
Constanța,44.2027,28.61,Romania,303399
Ploiești,44.9469,26.0365,Romania,232542
Oradea,47.05,21.92,Romania,213830
Brăila,45.292,27.969,Romania,213569
Bacău,46.5784,26.9196,Romania,199668
Pitești,44.8563,24.8758,Romania,171021
Arad,46.17,21.32,Romania,169065
Sibiu,45.7971,24.1371,Romania,155565
Tirgu Mures,46.5582,24.5578,Romania,149433
Baia Mare,47.6595,23.5791,Romania,136553
Buzău,45.1565,26.8065,Romania,130954
Botoșani,47.7484,26.6597,Romania,114783
Satu Mare,47.792,22.885,Romania,112490
Port-au-Prince,18.541,-72.336,Haiti,1998000
Cap-Haïtien,19.7592,-72.2125,Haiti,281487
Les Cayes,18.2004,-73.75,Haiti,175457
Gonaïves,19.4504,-72.6832,Haiti,166678
Sanaa,15.3547,44.2066,Yemen,2008000
Aden,12.7797,45.0095,Yemen,1000000
Al Hudaydah,14.7979,42.953,Yemen,780000
Taizz,13.6045,44.0394,Yemen,751000
Al Mukalla,14.5412,49.1259,Yemen,258132
Ibb,13.9759,44.1709,Yemen,234837
Hajjah,15.6917,43.6021,Yemen,208287
Dhamar,14.5575,44.3875,Yemen,191259
Zabīd,14.1951,43.3155,Yemen,152504
Sadah,16.9398,43.8498,Yemen,105542
Saywun,15.943,48.7873,Yemen,68747
Lahij,13.0582,44.8838,Yemen,66288
Ash Shihr,14.7593,49.6092,Yemen,54274
Kuwait,29.3697,47.9783,Kuwait,2063000
Al Jahra,29.3375,47.6581,Kuwait,194193
Al Ahmadi,29.0769,48.0838,Kuwait,68763
Santa Cruz,-17.7539,-63.226,Bolivia,2102998
La Paz,-16.498,-68.15,Bolivia,1590000
Cochabamba,-17.41,-66.17,Bolivia,1000000
Oruro,-17.98,-67.13,Bolivia,246501
Santa Ana,-13.76,-65.58,Bolivia,234478
Quillacollo,-17.4,-66.28,Bolivia,227052
Sucre,-19.041,-65.2595,Bolivia,224838
Potosí,-19.5696,-65.75,Bolivia,179901
Tarija,-21.5167,-64.75,Bolivia,159269
Montero,-17.3496,-63.26,Bolivia,88616
Trinidad,-14.8334,-64.9,Bolivia,84259
Riberalta,-10.983,-66.1,Bolivia,74014
Accra,5.55,-0.2167,Ghana,2121000
Kumasi,6.69,-1.63,Ghana,1646000
Tamale,9.4004,-0.84,Ghana,360579
Sekondi,4.9433,-1.704,Ghana,286248
Tema,5.6404,0.01,Ghana,209000
Obuasi,6.1904,-1.66,Ghana,180117
Koforidua,6.0904,-0.26,Ghana,156653
Cape Coast,5.1104,-1.25,Ghana,143015
Ho,6.6004,0.47,Ghana,93044
Bolgatanga,10.7904,-0.85,Ghana,82177
Wa,10.0604,-2.5,Ghana,78107
Bawku,11.0604,-0.24,Ghana,73594
Sunyani,7.336,-2.336,Ghana,70299
Nkawkaw,6.5505,-0.78,Ghana,62667
Baku,40.3953,49.8622,Azerbaijan,2122300
Ganca,40.685,46.35,Azerbaijan,303268
Sumqayt,40.58,49.63,Azerbaijan,279159
Naxcivan,39.2092,45.4122,Azerbaijan,94788
Ali Bayramli,39.9323,48.9203,Azerbaijan,70684
Saki,41.1923,47.1705,Azerbaijan,64968
Lankaran,38.754,48.8511,Azerbaijan,60180
Stepanakert,39.8156,46.752,Azerbaijan,57473
Yevlax,40.6172,47.15,Azerbaijan,53716
Santo Domingo,18.4701,-69.9001,Dominican Republic,2154000
Santiago,19.5,-70.67,Dominican Republic,1550753
San Pedro de Macorís,18.4504,-69.3,Dominican Republic,217899
La Romana,18.417,-68.9666,Dominican Republic,208437
La Vega,19.2166,-70.5166,Dominican Republic,163197
San Cristóbal,18.416,-70.109,Dominican Republic,154040
San Francisco de Macorís,19.3,-70.25,Dominican Republic,152538
Higuey,18.616,-68.708,Dominican Republic,123787
Puerto Plata,19.7902,-70.6902,Dominican Republic,119897
Barahona,18.2004,-71.1,Dominican Republic,90128
Bonao,18.942,-70.409,Dominican Republic,73269
San Juan,18.807,-71.229,Dominican Republic,72950
Baní,18.28,-70.331,Dominican Republic,66709
Moca,19.397,-70.523,Dominican Republic,61834
Azua,18.454,-70.729,Dominican Republic,59139
Havana,23.132,-82.3642,Cuba,2174000
Santiago de Cuba,20.025,-75.8213,Cuba,555865
Camagüey,21.3808,-77.9169,Cuba,347562
Holguín,20.8872,-76.2631,Cuba,319102
Guantánamo,20.1453,-75.2061,Cuba,272801
Santa Clara,22.4,-79.9667,Cuba,250512
Las Tunas,20.9601,-76.9544,Cuba,203684
Bayamo,20.3795,-76.6433,Cuba,192632
Pinar del Rio,22.4175,-83.6981,Cuba,186990
Cienfuegos,22.1444,-80.4403,Cuba,186644
Matanzas,23.0415,-81.5775,Cuba,146733
Ciego de Ávila,21.84,-78.7619,Cuba,142027
Manzanillo,20.3438,-77.1166,Cuba,128188
Sancti Spíritus,21.9301,-79.4425,Cuba,127069
Palma Soriano,20.2172,-75.9988,Cuba,102826
Güines,22.8361,-82.028,Cuba,68935
Artemisa,22.8134,-82.7619,Cuba,68073
Morón,22.1099,-78.6275,Cuba,66060
Colón,22.7196,-80.9058,Cuba,63882
Sagua la Grande,22.809,-80.0711,Cuba,62073
Tashkent,41.3117,69.2949,Uzbekistan,2184000
Fargona,40.39,71.78,Uzbekistan,750000
Namangan,41,71.67,Uzbekistan,750000
Samarqand,39.67,66.945,Uzbekistan,708000
Andijon,40.79,72.34,Uzbekistan,650000
Shahrisabz,39.0618,66.8315,Uzbekistan,498545
Qarshi,38.8704,65.8,Uzbekistan,386361
Qoqon,40.5404,70.94,Uzbekistan,350000
Bukhara,39.78,64.43,Uzbekistan,319476
Kattaqorgon,39.9007,66.2608,Uzbekistan,247113
Jizzax,40.1004,67.83,Uzbekistan,235352
Nukus,42.47,59.615,Uzbekistan,230006
Denow,38.2772,67.8872,Uzbekistan,217274
Navoi,40.1104,65.355,Uzbekistan,214828
Angren,41.0304,70.1549,Uzbekistan,202070
Iskandar,41.5507,69.6807,Uzbekistan,195633
Termiz,37.2329,67.2729,Uzbekistan,177687
Chirchiq,41.455,69.56,Uzbekistan,167842
Urgentch,41.56,60.64,Uzbekistan,150110
Khiwa,41.3911,60.3557,Uzbekistan,149751
Tripoli,32.8925,13.18,Libya,2189000
Banghazi,32.1167,20.0667,Libya,1180000
Misratah,32.38,15.1,Libya,386120
Tubruq,32.08,23.96,Libya,263527
Al Khums,32.6604,14.26,Libya,201943
Az Zawiyah,32.7604,12.72,Libya,200000
Zuwarah,32.9344,12.0791,Libya,180310
Al Marj,32.5005,20.83,Libya,169540
Gharyan,32.1704,13.02,Libya,146810
Ajdabiya,30.77,20.22,Libya,143833
Surt,31.21,16.59,Libya,128123
Darnah,32.7648,22.6391,Libya,127974
Sabha,27.0333,14.4333,Libya,100249
Nalut,31.8804,10.97,Libya,66609
Bani Walid,31.7704,13.99,Libya,65392
Marzuq,25.9044,13.8972,Libya,55071
Vienna,48.2,16.3666,Austria,2400000
Linz,48.3192,14.2888,Austria,349161
Graz,47.0778,15.41,Austria,263234
Salzburg,47.8105,13.04,Austria,206279
Innsbruck,47.2804,11.41,Austria,155214
Klagenfurt,46.6203,14.31,Austria,90610
Wiener Neustadt,47.816,16.25,Austria,82762
Tunis,36.8028,10.1797,Tunisia,2412500
Sfax,34.75,10.72,Tunisia,453050
Sousse,35.83,10.625,Tunisia,327004
Gabès,33.9004,10.1,Tunisia,219517
Zarzis,33.5104,11.1,Tunisia,159161
Qairouan,35.6804,10.1,Tunisia,144522
Bizerte,37.2904,9.855,Tunisia,139843
Gafsa,34.4204,8.78,Tunisia,126803
Nabeul,36.4603,10.73,Tunisia,115149
L'Ariana,36.8667,10.2,Tunisia,97687
Qasserine,35.1804,8.83,Tunisia,81987
Monastir,35.7307,10.7673,Tunisia,71546
Tataouine,33,10.4667,Tunisia,62577
Medenine,33.4,10.4167,Tunisia,61705
Béja,36.7304,9.19,Tunisia,59567
Jendouba,36.5,8.75,Tunisia,51408
George Town,5.4136,100.3294,Malaysia,2500000
Kuala Lumpur,3.1667,101.7,Malaysia,1448000
Kelang,3.0204,101.55,Malaysia,956000
Johor Bahru,1.48,103.73,Malaysia,875000
Butterworth,5.4171,100.4,Malaysia,821652
Malacca,2.2064,102.2465,Malaysia,788706
Ipoh,4.6,101.065,Malaysia,673318
Kuching,1.53,110.33,Malaysia,570407
Kota Kinabalu,5.98,116.11,Malaysia,527671
Kota Baharu,6.12,102.23,Malaysia,505583
Shah Alam,3.0667,101.55,Malaysia,481654
Sandakan,5.843,118.108,Malaysia,392288
Seremban,2.7105,101.94,Malaysia,372917
Kuantan,3.83,103.32,Malaysia,366229
Sungai Petani,5.6497,100.4793,Malaysia,358499
Kuala Terengganu,5.3304,103.12,Malaysia,350210
Alor Setar,6.1133,100.3729,Malaysia,336475
Tawau,4.271,117.896,Malaysia,306462
Taiping,4.865,100.72,Malaysia,237095
Miri,4.3999,113.9845,Malaysia,228212
Guayaquil,-2.22,-79.92,Ecuador,2514000
Quito,-0.215,-78.5001,Ecuador,1701000
Cuenca,-2.9,-79,Ecuador,286878
Ambato,-1.2696,-78.62,Ecuador,281425
Portoviejo,-1.06,-80.46,Ecuador,213601
Machala,-3.26,-79.96,Ecuador,213034
Manta,-0.98,-80.73,Ecuador,183166
Sangolquí,-0.31,-78.46,Ecuador,178582
Esmeraldas,0.9304,-79.67,Ecuador,173101
Riobamba,-1.67,-78.65,Ecuador,172464
Ibarra,0.3604,-78.13,Ecuador,146741
Loja,-3.99,-79.21,Ecuador,126368
Milagro,-2.1796,-79.6,Ecuador,109970
Latacunga,-0.9296,-78.61,Ecuador,94972
Tulcán,0.822,-77.732,Ecuador,83000
Babahoyo,-1.7996,-79.54,Ecuador,76279
Azogues,-2.74,-78.84,Ecuador,69087
Dakar,14.7158,-17.4731,Senegal,2604000
Thiès,14.8104,-16.93,Senegal,293001
Kaolack,14.15,-16.1,Senegal,277812
Ziguinchor,12.59,-16.29,Senegal,191716
Diourbel,14.6604,-16.24,Senegal,148024
Tambacounda,13.7804,-13.68,Senegal,89212
Louga,15.6104,-16.25,Senegal,85075
Kolda,12.9104,-14.95,Senegal,69267
Kiev,50.4334,30.5166,Ukraine,2709000
Kharkiv,50,36.25,Ukraine,1461000
Dnipro,48.48,35,Ukraine,1050000
Odessa,46.49,30.71,Ukraine,991000
Donetsk,48,37.83,Ukraine,988000
Lvov,49.835,24.03,Ukraine,803880
Zaporizhzhya,47.8573,35.1768,Ukraine,788000
Kryvyy Rih,47.9283,33.345,Ukraine,652380
Mykolayiv,46.9677,31.9843,Ukraine,510840
Mariupol,47.0962,37.5562,Ukraine,481626
Luhansk,48.5698,39.3344,Ukraine,452000
Khmelnytskyy,49.4249,27.0015,Ukraine,398346
Horlivka,48.2996,38.0547,Ukraine,396885
Makiyivka,48.0297,37.9746,Ukraine,376610
Vinnytsya,49.2254,28.4816,Ukraine,352115
Kherson,46.6325,32.6007,Ukraine,320477
Poltava,49.574,34.5703,Ukraine,317847
Chernihiv,51.5049,31.3015,Ukraine,307684
Chernivtsi,48.3053,25.9216,Ukraine,298251
Cherkasy,49.4347,32.0709,Ukraine,297568
Aleppo,36.23,37.17,Syria,2738000
Damascus,33.5,36.3,Syria,2466000
Hims,34.73,36.72,Syria,1005000
Al Ladhiqiyah,35.54,35.78,Syria,539147
Douma,33.5833,36.4,Syria,496145
Hamah,35.1503,36.73,Syria,460602
Dayr az Zawr,35.3304,40.13,Syria,309141
Ar Raqqah,35.9304,39.02,Syria,177636
Tartus,34.8846,35.8866,Syria,162980
Dar'a,32.625,36.105,Syria,146481
Idlib,35.9297,36.6317,Syria,128840
Al Hasakah,36.4833,40.75,Syria,128100
Manbij,36.5266,37.9563,Syria,120169
Al Qamishli,37.03,41.23,Syria,104107
Madinat ath Thawrah,35.8367,38.5481,Syria,87880
Abu Kamal,34.4504,40.9186,Syria,80808
As Suwayda,32.7004,36.5666,Syria,72248
Tadmur,34.5504,38.2833,Syria,55111
Ad Nabk,34.017,36.7333,Syria,50178
Katowice,50.2604,19.02,Poland,2746000
Warsaw,52.25,21,Poland,1707000
Łódź,51.775,19.4514,Poland,758000
Kraków,50.06,19.96,Poland,756000
Gdańsk,54.36,18.64,Poland,740000
Bytom,50.35,18.91,Poland,662247
Wrocław,51.1104,17.03,Poland,634893
Poznań,52.4058,16.8999,Poland,623997
Gliwice,50.3304,18.67,Poland,507670
Szczecin,53.4204,14.53,Poland,407811
Bydgoszcz,53.1204,18.01,Poland,366452
Lublin,51.2504,22.5727,Poland,360044
Gdynia,54.5204,18.53,Poland,314664
Białystok,53.1504,23.17,Poland,291855
Rzeszów,50.0705,22,Poland,245686
Kielce,50.8904,20.66,Poland,215733
Olsztyn,53.8,20.48,Poland,186670
Opole,50.685,17.9313,Poland,131412
Elbląg,54.19,19.4027,Poland,127558
Zielona Góra,51.9504,15.5,Poland,118433
Lisbon,38.7227,-9.1449,Portugal,2812000
Porto,41.15,-8.62,Portugal,1337000
Braga,41.555,-8.4213,Portugal,826833
Funchal,32.65,-16.88,Portugal,204767
Setúbal,38.53,-8.9,Portugal,117974
Coimbra,40.2004,-8.4167,Portugal,106582
Ponta Delgada,37.7483,-25.6666,Portugal,61526
Portimão,37.1337,-8.5333,Portugal,61226
Évora,38.56,-7.906,Portugal,55620
Aveiro,40.641,-8.651,Portugal,54162
Dar es Salaam,-6.8,39.2683,Tanzania,2930000
Moshi,-3.3396,37.34,Tanzania,721018
Mwanza,-2.52,32.93,Tanzania,493944
Zanzibar,-6.16,39.2,Tanzania,403658
Arusha,-3.36,36.67,Tanzania,341136
Mbeya,-8.89,33.43,Tanzania,291649
Morogoro,-6.82,37.66,Tanzania,250902
Tanga,-5.07,39.09,Tanzania,224876
Dodoma,-6.1833,35.75,Tanzania,218269
Kigoma,-4.8796,29.61,Tanzania,164268
Tabora,-5.02,32.8,Tanzania,146495
Musoma,-1.4896,33.8,Tanzania,133156
Tukuyu,-9.2496,33.64,Tanzania,127570
Songea,-10.68,35.65,Tanzania,126449
Iringa,-7.7696,35.69,Tanzania,111820
Shinyanga,-3.6596,33.42,Tanzania,107362
Bukoba,-1.3196,31.8,Tanzania,100504
Mtwara,-10.2696,40.19,Tanzania,96602
Kilosa,-6.8396,36.99,Tanzania,91889
Sumbawanga,-7.9596,31.62,Tanzania,89161
Caracas,10.501,-66.917,Venezuela,2985000
Maracaibo,10.73,-71.66,Venezuela,2072000
Valencia,10.23,-67.98,Venezuela,1770000
Barquisimeto,10.05,-69.3,Venezuela,1116000
Maracay,10.2469,-67.5958,Venezuela,1007000
Ciudad Guayana,8.37,-62.62,Venezuela,746535
Barcelona,10.1304,-64.72,Venezuela,600954
Puerto la Cruz,10.17,-64.68,Venezuela,546616
Cabimas,10.43,-71.45,Venezuela,441094
San Cristóbal,7.77,-72.25,Venezuela,438798
Maturín,9.75,-63.17,Venezuela,410972
Merida,8.4,-71.13,Venezuela,345489
Ciudad Bolívar,8.1,-63.6,Venezuela,338000
Cumaná,10.45,-64.18,Venezuela,317603
Maiquetía,10.6004,-66.97,Venezuela,315442
Los Teques,10.42,-67.02,Venezuela,303470
Barinas,8.6,-70.25,Venezuela,284289
Acarigua,9.5804,-69.2,Venezuela,260921
Punto Fijo,11.72,-70.21,Venezuela,234736
El Tigre,8.8903,-64.26,Venezuela,197440
Nairobi,-1.2833,36.8167,Kenya,3010000
Mombasa,-4.04,39.6899,Kenya,882000
Kisumu,-0.09,34.75,Kenya,395615
Nakuru,-0.28,36.07,Kenya,364727
Eldoret,0.52,35.27,Kenya,353381
Kitale,1.0305,34.9899,Kenya,150495
Machakos,-1.5095,37.26,Kenya,144925
Thika,-1.0396,37.09,Kenya,99322
Kericho,-0.3596,35.28,Kenya,98852
Malindi,-3.21,40.1,Kenya,94016
Kendu Bay,-0.3596,34.64,Kenya,91248
Kilifi,-3.6096,39.85,Kenya,80339
Sotik,-0.6796,35.12,Kenya,71285
Garissa,-0.4396,39.67,Kenya,67861
Kakamega,0.2904,34.73,Kenya,63426
Embu,-0.5196,37.45,Kenya,58620
Bungoma,0.5704,34.56,Kenya,55962
Nyeri,-0.417,36.951,Kenya,51084
Addis Ababa,9.0333,38.7,Ethiopia,3100000
Nazret,8.55,39.27,Ethiopia,476892
Dire Dawa,9.59,41.86,Ethiopia,252279
Bahir Dar,11.6001,37.3833,Ethiopia,206748
Dese,11.13,39.63,Ethiopia,183802
Harar,9.32,42.15,Ethiopia,174994
Gondar,12.61,37.46,Ethiopia,156230
Awasa,7.06,38.477,Ethiopia,133097
Jima,7.68,36.83,Ethiopia,128306
Giyon,8.5304,37.97,Ethiopia,114534
Shashemene,7.2004,38.59,Ethiopia,114350
Adigrat,14.2804,39.47,Ethiopia,104021
Mekele,13.5,39.47,Ethiopia,95856
Hosaina,7.5504,37.85,Ethiopia,89300
Asela,7.9504,39.1399,Ethiopia,82240
Gode,5.95,43.45,Ethiopia,75000
Nekemte,9.0905,36.53,Ethiopia,73018
Debre Markos,10.34,37.72,Ethiopia,70758
Arba Minch,6.04,37.55,Ethiopia,69622
Sodo,6.9,37.75,Ethiopia,65737
Tel Aviv-Yafo,32.08,34.77,Israel,3112000
Jerusalem,31.7784,35.2066,Israel,1029300
Haifa,32.8204,34.98,Israel,1011000
Beer Sheva,31.25,34.83,Israel,206408
Nazareth,32.704,35.2955,Israel,151459
Ramla,31.9167,34.8667,Israel,63860
Casablanca,33.6,-7.6164,Morocco,3181000
Rabat,34.0253,-6.8361,Morocco,1705000
Fez,34.0546,-5.0004,Morocco,1002000
Marrakesh,31.63,-8,Morocco,872000
Agadir,30.44,-9.62,Morocco,825467
Tangier,35.7473,-5.8327,Morocco,750060
Meknes,33.9004,-5.56,Morocco,697628
Kenitra,34.2704,-6.58,Morocco,551786
Oujda,34.69,-1.91,Morocco,409391
Safi,32.32,-9.24,Morocco,353476
Ksar El Kebir,35.0204,-5.91,Morocco,306600
Er Rachidia,31.9404,-4.45,Morocco,228489
Taza,34.2204,-4.02,Morocco,199633
El Jadida,33.2604,-8.51,Morocco,180470
Settat,33.0104,-7.62,Morocco,161748
Larache,35.2004,-6.16,Morocco,120082
Goulimine,28.98,-10.07,Morocco,115267
Ouezzane,34.8103,-5.57,Morocco,69658
Tan Tan,28.4304,-11.1,Morocco,64868
Tiznit,29.7104,-9.74,Morocco,57705
Athens,37.9833,23.7333,Greece,3242000
Thessaloniki,40.6961,22.885,Greece,828000
Piraeus,37.95,23.7,Greece,466065
Patra,38.23,21.73,Greece,163360
Iraklio,35.325,25.1305,Greece,137154
Larissa,39.6304,22.42,Greece,128758
Volos,39.37,22.95,Greece,110632
Ioanina,39.6679,20.8509,Greece,86304
Hania,35.5122,24.0156,Greece,78728
Agrinio,38.6218,21.4077,Greece,75233
Chalkida,38.464,23.6124,Greece,71842
Kalamata,37.0389,22.1142,Greece,71823
Kavala,40.9412,24.4018,Greece,59240
Rodos,36.4412,28.2225,Greece,56969
Seres,41.086,23.5497,Greece,55886
Katerini,40.2723,22.5025,Greece,53293
Alexandroupoli,40.8486,25.8744,Greece,52979
Xanthi,41.1418,24.8836,Greece,50570
Kabul,34.5167,69.1833,Afghanistan,3277000
Kandahar,31.61,65.6949,Afghanistan,715542
Jalalabad,34.4415,70.4361,Afghanistan,597971
Herat,34.33,62.17,Afghanistan,481009
Mazar-e Sharif,36.7,67.1,Afghanistan,458151
Kondoz,36.728,68.8725,Afghanistan,259809
Baghlan,36.1393,68.6993,Afghanistan,218748
Lashkar Gah,31.583,64.36,Afghanistan,201546
Meymaneh,35.9302,64.7701,Afghanistan,199795
Balkh,36.7501,66.8997,Afghanistan,179969
Ghazni,33.5633,68.4178,Afghanistan,141000
Gardiz,33.6001,69.2146,Afghanistan,103601
Sheberghan,36.658,65.7383,Afghanistan,93241
Farah,32.3917,62.0968,Afghanistan,73647
Andkhvoy,36.9317,65.1015,Afghanistan,71730
Feyzabad,37.1298,70.5792,Afghanistan,64704
Taloqan,36.73,69.54,Afghanistan,64256
Bamian,34.8211,67.521,Afghanistan,61863
Pol-e Khomri,35.9511,68.7011,Afghanistan,56369
Charikar,35.0183,69.1679,Afghanistan,53676
Rome,41.896,12.4833,Italy,3339000
Milan,45.47,9.205,Italy,2945000
Naples,40.84,14.245,Italy,2250000
Turin,45.0704,7.67,Italy,1652000
Florence,43.78,11.25,Italy,1500000
Salerno,40.6804,14.7699,Italy,954265
Palermo,38.125,13.35,Italy,863000
Catania,37.5,15.08,Italy,674542
Genoa,44.41,8.93,Italy,647497
Bari,41.1142,16.8728,Italy,500577
Bologna,44.5004,11.34,Italy,488172
Verona,45.4404,10.99,Italy,347459
Pescara,42.4554,14.2187,Italy,314789
Cagliari,39.2224,9.104,Italy,291511
Venice,45.4387,12.335,Italy,270816
Messina,38.2005,15.55,Italy,252026
Como,45.81,9.08,Italy,250000
Caserta,41.06,14.3374,Italy,250000
Trieste,45.6504,13.8,Italy,216035
Pisa,43.7205,10.4,Italy,203336
Algiers,36.7631,3.0506,Algeria,3354000
Oran,35.71,-0.62,Algeria,798000
Constantine,36.36,6.5999,Algeria,605179
Blida,36.4203,2.83,Algeria,511348
Annaba,36.92,7.76,Algeria,503524
Chlef,36.1704,1.32,Algeria,449167
Béjaïa,36.7604,5.07,Algeria,384937
Batna,35.57,6.17,Algeria,280798
Sétif,36.18,5.4,Algeria,274744
Tlimcen,34.8904,-1.32,Algeria,229777
Skikda,36.8804,6.9,Algeria,225181
Sidi bel Abbes,35.1903,-0.64,Algeria,208604
Biskra,34.86,5.73,Algeria,202103
Mostaganem,35.9404,0.09,Algeria,188354
Tiarat,35.3804,1.32,Algeria,184195
El Oued,33.3704,6.86,Algeria,177497
Ouargla,31.97,5.34,Algeria,176271
Tébessa,35.4104,8.12,Algeria,171742
Djelfa,34.68,3.25,Algeria,170901
M'sila,35.7,4.545,Algeria,150000
Berlin,52.5218,13.4015,Germany,3406000
Stuttgart,48.78,9.2,Germany,2944700
Frankfurt,50.1,8.675,Germany,2895000
Mannheim,49.5004,8.47,Germany,2362000
Hamburg,53.55,10,Germany,1757000
Essen,51.45,7.0166,Germany,1742135
Duisburg,51.43,6.75,Germany,1276757
Munich,48.1299,11.575,Germany,1275000
Düsseldorf,51.2204,6.78,Germany,1220000
Cologne,50.93,6.95,Germany,1004000
Wuppertal,51.25,7.17,Germany,776525
Saarbrücken,49.2504,6.97,Germany,770001
Nürnberg,49.45,11.08,Germany,737304
Bremen,53.08,8.8,Germany,724909
Hannover,52.367,9.7167,Germany,722490
Bonn,50.7205,7.08,Germany,680543
Dresden,51.05,13.75,Germany,617515
Wiesbaden,50.0804,8.25,Germany,617126
Dortmund,51.53,7.45,Germany,588462
Leipzig,51.3354,12.41,Germany,542529
Johannesburg,-26.17,28.03,South Africa,3435000
Cape Town,-33.92,18.435,South Africa,3215000
Benoni,-26.1496,28.3299,South Africa,2986000
Durban,-29.865,30.98,South Africa,2729000
Pretoria,-25.7069,28.2294,South Africa,1338000
Vereeniging,-26.6496,27.96,South Africa,1074000
Port Elizabeth,-33.97,25.6,South Africa,1021000
Pietermaritzburg,-29.61,30.39,South Africa,750845
Bloemfontein,-29.12,26.2299,South Africa,463064
Welkom,-27.97,26.73,South Africa,431944
East London,-32.97,27.87,South Africa,338627
Thohoyandou,-22.95,30.48,South Africa,269707
Springs,-26.2696,28.43,South Africa,236083
Uitenhage,-33.7596,25.39,South Africa,228912
Polokwane,-23.89,29.45,South Africa,220045
Paarl,-33.6996,18.96,South Africa,187865
Klerksdorp,-26.88,26.62,South Africa,178921
George,-33.95,22.45,South Africa,174582
Rustenburg,-25.65,27.24,South Africa,165976
Kimberley,-28.7468,24.77,South Africa,165264
Abidjan,5.32,-4.04,Côte D’Ivoire,3802000
Bouaké,7.69,-5.03,Côte D’Ivoire,567481
Daloa,6.89,-6.45,Côte D’Ivoire,255168
San-Pedro,4.7704,-6.64,Côte D’Ivoire,210273
Yamoussoukro,6.8184,-5.2755,Côte D’Ivoire,206499
Korhogo,9.46,-5.64,Côte D’Ivoire,177711
Man,7.4004,-7.55,Côte D’Ivoire,146974
Divo,5.839,-5.36,Côte D’Ivoire,127867
Gagnoa,6.1504,-5.88,Côte D’Ivoire,123184
Soubré,5.7904,-6.61,Côte D’Ivoire,108933
Abengourou,6.7304,-3.49,Côte D’Ivoire,104020
Agboville,5.9403,-4.28,Côte D’Ivoire,81770
Grand Bassam,5.2004,-3.75,Côte D’Ivoire,73772
Dabou,5.3204,-4.3899,Côte D’Ivoire,72913
Dimbokro,6.6505,-4.71,Côte D’Ivoire,67349
Ferkessédougou,9.6004,-5.2,Côte D’Ivoire,62008
Bouaflé,6.978,-5.748,Côte D’Ivoire,60962
Bondoukou,8.0304,-2.8,Côte D’Ivoire,58297
Séguéla,7.9504,-6.67,Côte D’Ivoire,51157
Rangoon,16.7834,96.1667,Burma,4088000
Mandalay,21.97,96.085,Burma,1300000
Naypyidaw,19.7666,96.1186,Burma,930000
Mawlamyine,16.5004,97.67,Burma,438861
Bago,17.32,96.515,Burma,284318
Myeik,12.4541,98.6115,Burma,266720
Pathein,16.7704,94.75,Burma,237089
Monywa,22.105,95.15,Burma,226222
Hinthada,17.6483,95.4679,Burma,180728
Sittwe,20.14,92.88,Burma,179032
Letpadan,17.7819,95.7415,Burma,176571
Myingyan,21.4618,95.3914,Burma,163812
Taunggyi,20.782,97.038,Burma,160115
Mudon,16.2618,97.7215,Burma,152300
Dawei,14.098,98.195,Burma,146212
Myitkyina,25.3596,97.3928,Burma,139100
Pyay,18.8165,95.2114,Burma,135308
Pakokku,21.332,95.0866,Burma,126938
Magway,20.1445,94.9196,Burma,125973
Yaynangyoung,20.4615,94.881,Burma,110553
Riyadh,24.6408,46.7727,Saudi Arabia,4465000
Jeddah,21.5169,39.2192,Saudi Arabia,3012000
Ad Damman,26.4282,50.0997,Saudi Arabia,2054710
Makkah,21.43,39.82,Saudi Arabia,1385000
Medina,24.5,39.58,Saudi Arabia,1010000
At Taif,21.2622,40.3823,Saudi Arabia,657282
Al Hufuf,25.3487,49.5856,Saudi Arabia,637389
Al Hillah,23.4895,46.7564,Saudi Arabia,594605
Tabuk,28.3838,36.555,Saudi Arabia,547957
Buraydah,26.3664,43.9628,Saudi Arabia,398581
Hail,27.5236,41.7001,Saudi Arabia,385257
Najran,17.5065,44.1316,Saudi Arabia,369609
Al-Qatif,26.5196,50.0115,Saudi Arabia,368892
Al Mubarraz,25.4291,49.5659,Saudi Arabia,298562
Al Kharj,24.1556,47.312,Saudi Arabia,298428
Yanbu al Bahr,24.0943,38.0493,Saudi Arabia,267590
Hafar al Batin,28.4337,45.9601,Saudi Arabia,249194
Al Jubayl,27.0046,49.646,Saudi Arabia,237274
Arar,30.99,41.0207,Saudi Arabia,222016
Abha,18.2301,42.5001,Saudi Arabia,210886
Sydney,-33.92,151.1852,Australia,4630000
Melbourne,-37.82,144.975,Australia,4170000
Brisbane,-27.455,153.0351,Australia,1860000
Perth,-31.955,115.84,Australia,1532000
Adelaide,-34.935,138.6,Australia,1145000
Newcastle,-32.8453,151.815,Australia,1134616
Gold Coast,-28.0815,153.4482,Australia,527660
Cranbourne,-38.0996,145.2834,Australia,460491
Canberra,-35.283,149.129,Australia,327700
Wollongong,-34.4154,150.89,Australia,260914
Geelong,-38.1675,144.3956,Australia,160991
Cairns,-16.8878,145.7633,Australia,154225
Townsville,-19.25,146.77,Australia,138954
Albury,-36.06,146.92,Australia,104258
Nowra,-34.8828,150.6,Australia,94781
Darwin,-12.4254,130.85,Australia,93080
Toowoomba,-27.5645,151.9555,Australia,92800
Ballarat,-37.5596,143.84,Australia,85109
Bendigo,-36.76,144.28,Australia,81657
Hobart,-42.85,147.295,Australia,80870
Khartoum,15.5881,32.5342,Sudan,4754000
Omdurman,15.6167,32.48,Sudan,2395159
Port Sudan,19.6158,37.2164,Sudan,489725
Kassala,15.46,36.39,Sudan,401477
El Obeid,13.1833,30.2167,Sudan,393311
Niyala,12.06,24.89,Sudan,392373
Kosti,13.17,32.66,Sudan,345068
Medani,14.4,33.52,Sudan,332714
El Fasher,13.63,25.35,Sudan,252609
Gedaref,14.04,35.38,Sudan,201282
Shendi,16.6805,33.42,Sudan,186611
Ad Damazīn,11.7704,34.35,Sudan,186051
Kadugli,11.01,29.7,Sudan,176931
Atbara,17.71,33.98,Sudan,168612
Geneina,13.45,22.44,Sudan,162981
El Manaqil,14.2504,32.98,Sudan,151827
Sennar,13.55,33.6,Sudan,130122
En Nuhud,12.6904,28.42,Sudan,108008
EdDamer,17.59,33.96,Sudan,103941
Ed Dueim,13.9904,32.3,Sudan,87068
Baghdad,33.3386,44.3939,Iraq,5054000
Mosul,36.345,43.145,Iraq,1316000
Dahuk,36.8667,43,Iraq,986000
Irbil,36.179,44.0086,Iraq,926000
Basra,30.5135,47.8136,Iraq,870000
As Sulaymaniyah,35.5613,45.4309,Iraq,723170
An Najaf,32.0003,44.3354,Iraq,665552
Kirkuk,35.4722,44.3923,Iraq,601433
Al Hillah,32.4721,44.4217,Iraq,594605
Karbala,32.6149,44.0245,Iraq,510692
An Nasiriyah,31.0429,46.2676,Iraq,451547
Ad Diwaniyah,31.9889,44.924,Iraq,358408
Al Amarah,31.8416,47.1512,Iraq,345007
Al Kut,32.4907,45.8304,Iraq,321521
Baqubah,33.7476,44.6573,Iraq,299479
Ar Ramadi,33.42,43.3,Iraq,295121
Az Aubayr,30.3892,47.708,Iraq,262219
Al Fallujah,33.3477,43.7773,Iraq,231819
As Samawah,31.3099,45.2803,Iraq,174978
Ash Shatrah,31.4175,46.1772,Iraq,161949
Luanda,-8.8383,13.2344,Angola,5172900
Huambo,-12.75,15.76,Angola,1100000
Lobito,-12.37,13.5412,Angola,207932
Benguela,-12.5783,13.4072,Angola,151226
Namibe,-15.19,12.16,Angola,132900
Malanje,-9.54,16.34,Angola,125856
Lubango,-14.91,13.49,Angola,125632
Kuito,-12.38,16.94,Angola,114286
Cabinda,-5.5596,12.19,Angola,91791
Capenda-Camulemba,-9.4196,18.43,Angola,80000
Soyo,-6.1296,12.37,Angola,67491
Mbanza-Congo,-6.2696,14.24,Angola,60182
Uíge,-7.62,15.05,Angola,60008
Singapore,1.293,103.8558,Singapore,5183700
Toronto,43.7,-79.42,Canada,5213000
Montréal,45.5,-73.5833,Canada,3678000
Vancouver,49.2734,-123.1216,Canada,2313328
Ottawa,45.4167,-75.7,Canada,1145000
Calgary,51.083,-114.08,Canada,1110000
Edmonton,53.55,-113.5,Canada,1058000
Hamilton,43.25,-79.83,Canada,721053
Winnipeg,49.883,-97.166,Canada,632063
Québec,46.84,-71.2456,Canada,624177
Oshawa,43.88,-78.85,Canada,450963
Kitchener,43.45,-80.5,Canada,417001
Halifax,44.65,-63.6,Canada,359111
London,42.97,-81.25,Canada,346765
Windsor,42.3333,-83.0333,Canada,319246
Victoria,48.4333,-123.35,Canada,289625
Saskatoon,52.17,-106.67,Canada,198958
Barrie,44.3838,-79.7,Canada,182041
Regina,50.45,-104.617,Canada,176183
Sudbury,46.5,-80.9666,Canada,157857
Abbotsford,49.0504,-122.3,Canada,151683
Ho Chi Minh City,10.78,106.695,Vietnam,5314000
Hanoi,21.0333,105.85,Vietnam,4378000
Haiphong,20.83,106.6801,Vietnam,1969000
Can Tho,10.05,105.77,Vietnam,1121000
Da Nang,16.06,108.25,Vietnam,1000000
Hue,16.47,107.58,Vietnam,950000
Qui Nhon,13.78,109.18,Vietnam,805290
Biên Hòa,10.97,106.8301,Vietnam,652646
Vinh,18.7,105.68,Vietnam,593645
Thái Nguyên,21.6,105.83,Vietnam,500000
Nha Trang,12.25,109.17,Vietnam,411556
Cà Mau,9.1774,105.15,Vietnam,356636
Long Xuyen,10.3804,105.42,Vietnam,350000
Việt Trì,21.3304,105.43,Vietnam,350000
Buon Me Thuot,12.667,108.05,Vietnam,349945
Phan Thiet,10.9337,108.1001,Vietnam,336846
Rạch Giá,10.0154,105.0914,Vietnam,300000
Sóc Trăng,9.6037,105.98,Vietnam,300000
Da Lat,11.9304,108.42,Vietnam,256019
Quảng Ngãi,15.1504,108.83,Vietnam,250000
Madrid,40.4,-3.6834,Spain,5567000
Barcelona,41.3833,2.1834,Spain,4920000
Seville,37.405,-5.98,Spain,1212045
Bilbao,43.25,-2.93,Spain,875552
Valencia,39.485,-0.4,Spain,808000
Zaragoza,41.65,-0.89,Spain,649404
Málaga,36.7204,-4.42,Spain,550058
Murcia,37.98,-1.13,Spain,406807
Granada‎,37.165,-3.585,Spain,388290
Vigo,42.22,-8.73,Spain,378952
Las Palmas,28.1,-15.43,Spain,378495
Palma,39.5743,2.6542,Spain,375773
La Coruña,43.33,-8.42,Spain,370610
San Sebastián,43.3204,-1.98,Spain,357468
Santa Cruz de Tenerife,28.47,-16.25,Spain,336061
Gijón,43.53,-5.67,Spain,335972
Valladolid,41.65,-4.75,Spain,322304
Córdoba,37.88,-4.77,Spain,321376
Alicante,38.3512,-0.4836,Spain,315863
Cádiz,36.535,-6.225,Spain,283157
Santiago,-33.45,-70.667,Chile,5720000
Concepción,-36.83,-73.05,Chile,889725
Valparaíso,-33.0478,-71.621,Chile,854000
Viña del Mar,-33.03,-71.54,Chile,503534
Antofagasta,-23.65,-70.4,Chile,309832
Talcahuano,-36.7167,-73.1167,Chile,288074
Temuco,-38.73,-72.58,Chile,265901
San Bernardo,-33.6,-70.7,Chile,246762
Rancagua,-34.17,-70.74,Chile,233268
Iquique,-20.25,-70.13,Chile,227499
Talca,-35.455,-71.67,Chile,197479
Arica,-18.5,-70.29,Chile,185999
Puerto Montt,-41.47,-72.93,Chile,174629
Coquimbo,-29.9529,-71.3436,Chile,161317
Valdivia,-39.795,-73.245,Chile,159599
La Serena,-29.9,-71.25,Chile,154521
Osorno,-40.57,-73.16,Chile,154131
Chillán,-36.6,-72.106,Chile,150396
Los Angeles,-37.46,-72.36,Chile,145239
Calama,-22.45,-68.92,Chile,143084
Bangkok,13.75,100.5166,Thailand,6704000
Chiang Mai,18.8,98.98,Thailand,397211
Samut Prakan,13.6069,100.6115,Thailand,388920
Nakhon Ratchasima,15,102.1,Thailand,334984
Hat Yai,6.9964,100.4714,Thailand,317954
Ubon Ratchathani,15.25,104.83,Thailand,273893
Nonthaburi,13.8337,100.4833,Thailand,258550
Khon Kaen,16.42,102.83,Thailand,251056
Udon Thani,17.4048,102.7893,Thailand,247231
Nakhon Si Thammarat,8.4,99.97,Thailand,232335
Chon Buri,13.4004,101,Thailand,226618
Lampang,18.2916,99.4813,Thailand,204081
Si Racha,13.159,100.9287,Thailand,178916
Phitsanulok,16.8283,100.2729,Thailand,164017
Surat Thani,9.1501,99.3401,Thailand,157627
Pathum Thani,14.0171,100.5333,Thailand,154412
Pattani,6.864,101.25,Thailand,150000
Yala,6.5505,101.2851,Thailand,148140
Trang,7.5634,99.608,Thailand,147820
Ayutthaya,14.3588,100.5684,Thailand,145615
Taipei,25.0358,121.5683,Taiwan,6900273
Kaohsiung,22.6333,120.2666,Taiwan,2769072
Taichung,24.1521,120.6817,Taiwan,2629323
Tainan,23,120.2,Taiwan,1876312
Zhongli,24.965,121.2168,Taiwan,1632616
Changhua,24.0734,120.5134,Taiwan,750000
Hsinchu,24.8168,120.9767,Taiwan,750000
Pingtung,22.6817,120.4817,Taiwan,503530
Taoyuan,24.9889,121.3111,Taiwan,500000
Chiayi,23.4755,120.4351,Taiwan,500000
Keelung,25.1333,121.7333,Taiwan,500000
Hualien,23.9837,121.6,Taiwan,350468
Pingzhen,24.9439,121.2161,Taiwan,201632
Zhubei,24.8333,121.0119,Taiwan,200000
Yangmei,24.9167,121.15,Taiwan,175000
Taitung,22.7554,121.14,Taiwan,175000
Bade,24.9575,121.2989,Taiwan,172065
Nantou,23.9167,120.6833,Taiwan,165000
Miaoli,24.57,120.82,Taiwan,150000
Yilan,24.75,121.75,Taiwan,150000
Hong Kong,22.305,114.185,Hong Kong,7206000
Bogota,4.5964,-74.0833,Colombia,7772000
Medellín,6.275,-75.575,Colombia,3297000
Cali,3.4,-76.5,Colombia,2254000
Barranquilla,10.96,-74.8,Colombia,1798000
Bucaramanga,7.1301,-73.1259,Colombia,1009000
Cartagena,10.3997,-75.5144,Colombia,887000
Cúcuta,7.92,-72.52,Colombia,722146
Soledad,10.92,-74.77,Colombia,698852
Pereira,4.8104,-75.68,Colombia,568750
Bello,6.33,-75.57,Colombia,519670
Santa Marta,11.2472,-74.2017,Colombia,431781
Ibagué,4.4389,-75.2322,Colombia,421685
Pasto,1.2136,-77.2811,Colombia,382236
Manizales,5.06,-75.52,Colombia,375848
Villavicencio,4.1533,-73.635,Colombia,374763
Neiva,2.931,-75.3302,Colombia,352855
Armenia,4.5343,-75.6811,Colombia,315328
Valledupar,10.48,-73.25,Colombia,308237
Montería,8.7575,-75.89,Colombia,275198
Sincelejo,9.2904,-75.38,Colombia,261187
Kinshasa,-4.3297,15.315,Congo (Kinshasa),7843000
Lubumbashi,-11.68,27.48,Congo (Kinshasa),1352000
Mbuji-Mayi,-6.15,23.6,Congo (Kinshasa),1295000
Kananga,-5.89,22.4,Congo (Kinshasa),765000
Kikwit,-5.03,18.85,Congo (Kinshasa),637736
Kisangani,0.52,25.22,Congo (Kinshasa),578470
Bukavu,-2.51,28.84,Congo (Kinshasa),436779
Likasi,-10.97,26.78,Congo (Kinshasa),434408
Kolwezi,-10.7167,25.4724,Congo (Kinshasa),418000
Beni,0.4904,29.45,Congo (Kinshasa),332903
Butembo,0.13,29.28,Congo (Kinshasa),286403
Mbandaka,0.04,18.26,Congo (Kinshasa),274996
Tshikapa,-6.41,20.77,Congo (Kinshasa),267462
Kindu,-2.9639,25.91,Congo (Kinshasa),262914
Matadi,-5.8166,13.45,Congo (Kinshasa),245862
Kalemie,-5.9333,29.2,Congo (Kinshasa),206257
Gemena,3.26,19.77,Congo (Kinshasa),198056
Mbanza-Ngungu,-5.2496,14.86,Congo (Kinshasa),197545
Mwene-Ditu,-7,23.44,Congo (Kinshasa),189177
Boma,-5.83,13.05,Congo (Kinshasa),178638
Tehran,35.6719,51.4243,Iran,7873000
Mashhad,36.27,59.57,Iran,2469000
Isfahan,32.7,51.7,Iran,1628000
Karaj,35.8004,50.97,Iran,1423000
Tabriz,38.0863,46.3012,Iran,1413000
Shiraz,29.63,52.57,Iran,1240000
Ahvaz,31.28,48.72,Iran,996000
Qom,34.65,50.95,Iran,973000
Kermanshah,34.38,47.06,Iran,828313
Zahedan,29.5,60.83,Iran,598887
Rasht,37.3,49.63,Iran,594590
Kerman,30.3,57.08,Iran,577514
Urmia,37.53,45,Iran,577307
Hamadan,34.796,48.515,Iran,528256
Arak,34.0804,49.7,Iran,503647
Yazd,31.9201,54.37,Iran,477905
Qazvin,36.27,50,Iran,464551
Bandar-e-Abbas,27.2041,56.2721,Iran,461499
Khomeini Shahr,32.7004,51.47,Iran,437138
Ardabil,38.25,48.3,Iran,414603
Lima,-12.048,-77.0501,Peru,8012000
Callao,-12.07,-77.135,Peru,876877
Arequipa,-16.42,-71.53,Peru,815000
Trujillo,-8.12,-79.02,Peru,765171
Chiclayo,-6.7629,-79.8366,Peru,596792
Iquitos,-3.75,-73.25,Peru,458729
Huancayo,-12.08,-75.2,Peru,412733
Piura,-5.21,-80.63,Peru,396932
Cusco,-13.525,-71.9722,Peru,361182
Chimbote,-9.07,-78.57,Peru,349846
Pucallpa,-8.3689,-74.535,Peru,310750
Tacna,-18,-70.25,Peru,280098
Ica,-14.068,-75.7255,Peru,279420
Juliaca,-15.5,-70.14,Peru,245675
Ayacucho,-13.175,-74.22,Peru,166314
Sullana,-4.8896,-80.68,Peru,160789
Huánuco,-9.92,-76.24,Peru,158145
Chincha Alta,-13.4196,-76.14,Peru,153076
Cajamarca,-7.15,-78.53,Peru,142665
Cerro de Pasco,-10.69,-76.27,Peru,137232
London,51.5,-0.1167,United Kingdom,8567000
Birmingham,52.475,-1.92,United Kingdom,2285000
Manchester,53.5004,-2.248,United Kingdom,2230000
Leeds,53.83,-1.58,United Kingdom,1529000
Sheffield,53.3667,-1.5,United Kingdom,1292900
Glasgow,55.8744,-4.2507,United Kingdom,1160000
Newcastle,55.0004,-1.6,United Kingdom,882000
Cardiff,51.5,-3.225,United Kingdom,861400
Nottingham,52.9703,-1.17,United Kingdom,825600
Liverpool,53.416,-2.918,United Kingdom,811000
Southend-on-Sea,51.55,0.72,United Kingdom,618386
Bristol,51.45,-2.5833,United Kingdom,553528
Edinburgh,55.9483,-3.2191,United Kingdom,504966
Brighton,50.8303,-0.17,United Kingdom,503008
Bradford,53.8,-1.75,United Kingdom,501700
Leicester,52.63,-1.1332,United Kingdom,457983
Sunderland,54.92,-1.38,United Kingdom,452934
Belfast,54.6,-5.96,United Kingdom,450406
Portsmouth,50.8003,-1.08,United Kingdom,442252
Bournemouth,50.73,-1.9,United Kingdom,426945
Jakarta,-6.1744,106.8294,Indonesia,9125000
Surabaya,-7.2492,112.7508,Indonesia,2845000
Bandung,-6.95,107.57,Indonesia,2394000
Bekasi,-6.2173,106.9723,Indonesia,2378211
Medan,3.58,98.65,Indonesia,2115000
Palembang,-2.98,104.75,Indonesia,1749000
Semarang,-6.9666,110.42,Indonesia,1396000
Ujungpandang,-5.14,119.432,Indonesia,1262000
Cilacap,-7.7188,109.0154,Indonesia,1174964
Bogor,-6.57,106.75,Indonesia,918000
Bandar Lampung,-5.43,105.27,Indonesia,865000
Padang,-0.96,100.36,Indonesia,855000
Malang,-7.98,112.61,Indonesia,805000
Pekanbaru,0.565,101.425,Indonesia,799000
Denpasar,-8.65,115.22,Indonesia,732344
Yogyakarta,-7.78,110.375,Indonesia,636660
Palu,-0.907,119.833,Indonesia,612445
Pontianak,-0.03,109.32,Indonesia,607311
Bandjarmasin,-3.33,114.5801,Indonesia,603576
Samarinda,-0.5,117.15,Indonesia,592228
Lagos,6.4433,3.3915,Nigeria,9466000
Kano,12,8.52,Nigeria,3140000
Ibadan,7.38,3.93,Nigeria,2628000
Abuja,9.0833,7.5333,Nigeria,1576000
Kaduna,10.52,7.44,Nigeria,1442000
Benin City,6.3405,5.62,Nigeria,1190000
Ikare,7.5304,5.76,Nigeria,1099931
Port Harcourt,4.81,7.01,Nigeria,1020000
Ogbomosho,8.13,4.24,Nigeria,951000
Aba,5.1004,7.35,Nigeria,897560
Maiduguri,11.85,13.16,Nigeria,896000
Zaria,11.08,7.71,Nigeria,889000
Warri,5.52,5.76,Nigeria,830106
Jos,9.93,8.89,Nigeria,816824
Ilorin,8.49,4.55,Nigeria,771000
Oyo,7.8504,3.93,Nigeria,736072
Sokoto,13.06,5.24,Nigeria,732178
Enugu,6.45,7.5,Nigeria,688862
Abeokuta,7.1604,3.35,Nigeria,593100
Uyo,5.008,7.85,Nigeria,554906
Seoul,37.5663,126.9997,"""Korea"," South""",9796000
Busan,35.0951,129.01,"""Korea"," South""",3480000
Pyongyang,39.0194,125.7547,"""Korea"," North""",3300000
Incheon,37.4761,126.6422,"""Korea"," South""",2550000
Daegu,35.8668,128.607,"""Korea"," South""",2460000
Daejeon,36.3355,127.425,"""Korea"," South""",1468000
Gwangju,35.171,126.9104,"""Korea"," South""",1440000
Nampo,38.7669,125.4524,"""Korea"," North""",1127000
Changwon,35.2191,128.5836,"""Korea"," South""",1081499
Suwon,37.2578,127.0109,"""Korea"," South""",1078000
Ulsan,35.5467,129.317,"""Korea"," South""",1061000
Songnam,37.4386,127.1378,"""Korea"," South""",942000
Goyang,37.6527,126.8372,"""Korea"," South""",903000
Puch'on,37.4989,126.7831,"""Korea"," South""",866000
Cheongju,36.6439,127.5012,"""Korea"," South""",775096
Hamhung,39.9101,127.5454,"""Korea"," North""",773000
Hungnam,39.8231,127.6232,"""Korea"," North""",751322
Ansan,37.3481,126.8595,"""Korea"," South""",739493
Jeonju,35.8314,127.1404,"""Korea"," South""",711424
Chongjin,41.7846,129.79,"""Korea"," North""",672614
Paris,48.8667,2.3333,France,9904000
Lyon,45.77,4.83,France,1423000
Marseille,43.29,5.375,France,1400000
Lille,50.65,3.08,France,1044000
Nice,43.715,7.265,France,927000
Toulouse,43.62,1.4499,France,847000
Bordeaux,44.85,-0.595,France,803000
Rouen,49.4304,1.08,France,532559
Strasbourg,48.58,7.75,France,439972
Nantes,47.2104,-1.59,France,438537
Metz,49.1203,6.18,France,409186
Grenoble,45.1804,5.72,France,388574
Toulon,43.1342,5.9188,France,357693
Montpellier,43.6104,3.87,France,327254
Nancy,48.6837,6.2,France,268976
Saint-Étienne,45.4304,4.38,France,265684
Melun,48.5333,2.6666,France,249432
Le Havre,49.505,0.105,France,242124
Tours,47.3804,0.6999,France,236096
Clermont-Ferrand,45.78,3.08,France,233050
Istanbul,41.105,29.01,Turkey,10061000
Ankara,39.9272,32.8644,Turkey,3716000
İzmir,38.4361,27.1518,Turkey,2587000
Bursa,40.2,29.07,Turkey,1492000
Adana,36.995,35.32,Turkey,1293000
Gaziantep,37.075,37.385,Turkey,1044000
Konya,37.875,32.475,Turkey,919000
Tarsus,36.9204,34.88,Turkey,894318
Antalya,36.89,30.7,Turkey,783000
Trabzon,40.98,39.72,Turkey,764714
Diyarbakır,37.9204,40.23,Turkey,644763
Samsun,41.28,36.3437,Turkey,609339
Kayseri,38.735,35.49,Turkey,592840
Eskişehir,39.795,30.53,Turkey,514869
İzmit,40.776,29.9306,Turkey,466504
Malatya,38.3704,38.3,Turkey,461574
Şanlıurfa,37.17,38.795,Turkey,449549
Erzurum,39.9204,41.29,Turkey,420691
Kahramanmaraş,37.61,36.945,Turkey,376045
Denizli,37.7704,29.08,Turkey,372344
Moscow,55.7522,37.6155,Russia,10452000
St. Petersburg,59.939,30.316,Russia,4553000
Novosibirsk,55.03,82.96,Russia,1389000
Yekaterinburg,56.85,60.6,Russia,1313000
Nizhny Novgorod,56.333,44.0001,Russia,1278000
Samara,53.195,50.1513,Russia,1137000
Omsk,54.99,73.4,Russia,1135000
Kazan,55.7499,49.1263,Russia,1115000
Chelyabinsk,55.155,61.4387,Russia,1091000
Rostov,47.2346,39.7127,Russia,1052000
Ufa,54.79,56.04,Russia,1018000
Perm,58,56.25,Russia,997000
Volgograd,48.71,44.5,Russia,984000
Krasnoyarsk,56.014,92.866,Russia,925000
Voronezh,51.73,39.27,Russia,844000
Saratov,51.58,46.03,Russia,843000
Tolyatti,53.4804,49.53,Russia,702879
Krasnodar,45.02,39,Russia,649851
Ulyanovsk,54.33,48.41,Russia,640680
Izhevsk,56.85,53.23,Russia,631038
Manila,14.6042,120.9822,Philippines,11100000
Quezon City,14.6504,121.03,Philippines,2761720
Davao,7.11,125.63,Philippines,1402000
Cagayan de Oro,8.4508,124.6853,Philippines,1121561
General Santos,6.1108,125.1747,Philippines,950530
Bacolod,10.6317,122.9817,Philippines,949354
Cebu,10.32,123.9001,Philippines,815000
Zamboanga,6.92,122.08,Philippines,773000
Naga,13.6192,123.1814,Philippines,741635
Iligan,8.1712,124.2154,Philippines,464599
Baguio City,16.43,120.5699,Philippines,447824
Batangas,13.7817,121.0217,Philippines,424508
Pasay City,14.5504,121,Philippines,403064
Iloilo,10.705,122.545,Philippines,387681
Legazpi,13.17,123.75,Philippines,320081
Angeles,15.1451,120.5451,Philippines,314493
Olongapo,14.8296,120.2828,Philippines,304388
Cadiz,10.9587,123.3086,Philippines,283157
Tacloban,11.2504,125,Philippines,280006
Cotabato,7.2169,124.2484,Philippines,279519
Cairo,30.05,31.25,Egypt,11893000
Alexandria,31.2,29.95,Egypt,4165000
El Giza,30.01,31.19,Egypt,2681863
Ismaïlia,30.5903,32.26,Egypt,656135
Bur Said,31.26,32.29,Egypt,623864
Luxor,25.7,32.65,Egypt,609248
El Mansura,31.0504,31.38,Egypt,600000
Sohag,26.5504,31.7,Egypt,600000
Suez,30.005,32.5499,Egypt,508335
El Minya,28.09,30.75,Egypt,500000
Damanhûr,31.0504,30.47,Egypt,500000
Beni Suef,29.0804,31.09,Egypt,489450
Asyut,27.19,31.1799,Egypt,420585
Tanta,30.7904,31,Egypt,404901
El Faiyum,29.31,30.84,Egypt,316772
Aswan,24.0875,32.8989,Egypt,313442
Kom Ombo,24.47,32.95,Egypt,303962
Qena,26.1505,32.72,Egypt,302027
Dumyat,31.4204,31.82,Egypt,299459
Zagazig,30.5833,31.5167,Egypt,285097
Karachi,24.87,66.99,Pakistan,12130000
Lahore,31.56,74.35,Pakistan,6577000
Faisalabad,31.41,73.11,Pakistan,2617000
Saidu,34.75,72.35,Pakistan,1860310
Rawalpindi,33.6,73.04,Pakistan,1858000
Multan,30.2,71.455,Pakistan,1522000
Gujranwala,32.1604,74.185,Pakistan,1513000
Hyderabad,25.38,68.375,Pakistan,1459000
Peshawar,34.005,71.535,Pakistan,1303000
Abbottabad,34.1495,73.1995,Pakistan,1183647
Islamabad,33.7,73.1666,Pakistan,780000
Quetta,30.22,67.025,Pakistan,768000
Bannu,32.989,70.5986,Pakistan,622419
Bahawalpur,29.39,71.675,Pakistan,552607
Sargodha,32.0854,72.675,Pakistan,542603
Sialkote,32.52,74.56,Pakistan,477396
Sukkur,27.7136,68.8486,Pakistan,417767
Larkana,27.5618,68.2068,Pakistan,364033
Sheikhu Pura,31.72,73.99,Pakistan,361303
Mirput Khas,25.5318,69.0118,Pakistan,356435
Buenos Aires,-34.6025,-58.3975,Argentina,12795000
Córdoba,-31.4,-64.1823,Argentina,1452000
Rosario,-32.9511,-60.6663,Argentina,1203000
Mendoza,-32.8833,-68.8166,Argentina,893000
Tucumán,-26.816,-65.2166,Argentina,830000
La Plata,-34.9096,-57.96,Argentina,694253
Mar del Plata,-38,-57.58,Argentina,555897
Salta,-24.7834,-65.4166,Argentina,512686
Santa Fe,-31.6239,-60.69,Argentina,489505
San Juan,-31.55,-68.52,Argentina,447048
San Luis,-33.3,-66.35,Argentina,432310
Resistencia,-27.46,-58.99,Argentina,387158
Posadas,-27.3578,-55.8851,Argentina,357119
Santiago del Estero,-27.7833,-64.2667,Argentina,354692
Corrientes,-27.49,-58.81,Argentina,340823
San Salvador de Jujuy,-24.1833,-65.3,Argentina,305891
Bahía Blanca,-38.74,-62.265,Argentina,281536
Paraná,-31.7333,-60.5333,Argentina,262295
Neuquén,-38.95,-68.06,Argentina,242092
Formosa,-26.1728,-58.1828,Argentina,221383
Dhaka,23.7231,90.4086,Bangladesh,12797394
Chittagong,22.33,91.8,Bangladesh,4529000
Khulna,22.84,89.56,Bangladesh,1553000
Rajshahi,24.375,88.605,Bangladesh,810000
Comilla,23.4704,91.17,Bangladesh,389411
Mymensingh,24.7504,90.38,Bangladesh,330126
Rangpur,25.75,89.28,Bangladesh,285564
Jessore,23.1704,89.2,Bangladesh,243987
Sylhet,24.9036,91.8736,Bangladesh,237000
Saidpur,25.8004,89,Bangladesh,232209
Narayanganj,23.6204,90.5,Bangladesh,223622
Barisal,22.7004,90.375,Bangladesh,202242
Tangail,24.25,89.92,Bangladesh,180144
Jamalpur,24.9004,89.95,Bangladesh,167900
Nawabganj,24.5804,88.35,Bangladesh,142361
Pabna,24.0004,89.25,Bangladesh,137888
Shanghai,31.2165,121.4365,China,14987000
Beijing,39.9289,116.3883,China,11106000
Guangzhou,23.145,113.325,China,8829000
Shenzhen,22.5524,114.1221,China,7581000
Wuhan,30.58,114.27,China,7243000
Tianjin,39.13,117.2,China,7180000
Chongqing,29.565,106.595,China,6461000
Shenyeng,41.805,123.45,China,4787000
Dongguan,23.0489,113.7447,China,4528000
Chengdu,30.67,104.07,China,4123000
Xian,34.275,108.895,China,4009000
Hechi,23.0965,109.6091,China,3830000
Nanjing,32.05,118.78,China,3679000
Guiyang,26.58,106.72,China,3662000
Harbin,45.75,126.65,China,3621000
Zhangzhou,24.5204,117.67,China,3531147
Changchun,43.865,125.34,China,3183000
Dalian,38.9228,121.6298,China,3167000
Zibo,36.8,118.05,China,3061000
Hangzhou,30.25,120.17,China,3007000
São Paulo,-23.5587,-46.625,Brazil,18845000
Rio de Janeiro,-22.925,-43.225,Brazil,11748000
Belo Horizonte,-19.915,-43.915,Brazil,5575000
Porto Alegre,-30.05,-51.2,Brazil,3917000
Brasília,-15.7833,-47.9161,Brazil,3716996
Recife,-8.0756,-34.9156,Brazil,3651000
Fortaleza,-3.75,-38.58,Brazil,3602319
Salvador,-12.97,-38.48,Brazil,3484000
Curitiba,-25.42,-49.32,Brazil,3084000
Campinas,-22.9,-47.1,Brazil,2791000
Belém,-1.45,-48.48,Brazil,2167000
Goiânia,-16.72,-49.3,Brazil,2022000
Manaus,-3.1,-60,Brazil,1753000
Santos,-23.9537,-46.3329,Brazil,1709000
Vitória,-20.324,-40.366,Brazil,1704000
Niterói,-22.9,-43.1,Brazil,1500513
Vila Velha,-20.3676,-40.318,Brazil,1209091
Vila Velha,3.2167,-51.2167,Brazil,1209091
Maceió,-9.62,-35.73,Brazil,1186000
Natal,-5.78,-35.24,Brazil,1088000
Mumbai,19.017,72.857,India,18978000
Delhi,28.67,77.23,India,15926000
Kolkata,22.495,88.3247,India,14787000
Chennai,13.09,80.28,India,7163000
Bangalore,12.97,77.56,India,6787000
Hyderabad,17.4,78.48,India,6376000
Ahmedabad,23.0301,72.58,India,5375000
Haora,22.5804,88.3299,India,4841638
Pune,18.53,73.85,India,4672000
Surat,21.2,72.84,India,3842000
Kanpur,26.46,80.32,India,3162000
Jaipur,26.9211,75.81,India,2917000
Lucknow,26.855,80.915,India,2695000
Nagpur,21.17,79.09,India,2454000
Patna,25.625,85.13,India,2158000
Indore,22.7151,75.865,India,2026000
Vadodara,22.31,73.18,India,1756000
Bhopal,23.25,77.41,India,1727000
Coimbatore,11,76.95,India,1696000
Ludhiana,30.9278,75.8723,India,1649000
Mexico City,19.4424,-99.131,Mexico,19028000
Guadalajara,20.67,-103.33,Mexico,4198000
Monterrey,25.67,-100.33,Mexico,3712000
Puebla,19.05,-98.2,Mexico,2195000
Tijuana,32.5,-117.08,Mexico,1553000
Toluca,19.3304,-99.67,Mexico,1531000
León,21.15,-101.7,Mexico,1488000
Ciudad Juárez,31.6904,-106.49,Mexico,1343000
Torreón,25.5701,-103.42,Mexico,1144000
Nezahualcoyotl,19.41,-99.03,Mexico,1109363
San Luis Potosí,22.17,-101,Mexico,992000
Mérida,20.9666,-89.6166,Mexico,965000
Querétaro,20.63,-100.38,Mexico,961000
Mexicali,32.65,-115.48,Mexico,885000
Aguascalientes,21.8795,-102.2904,Mexico,869000
Tampico,22.3,-97.87,Mexico,859419
Cuernavaca,18.9211,-99.24,Mexico,834001
Culiacán,24.83,-107.38,Mexico,809000
Chihuahua,28.645,-106.085,Mexico,793000
Saltillo,25.42,-101.005,Mexico,754000
New York,40.6943,-73.9249,United States,19354922
Los Angeles,34.1139,-118.4068,United States,12815475
Chicago,41.8373,-87.6861,United States,8675982
Miami,25.784,-80.2102,United States,6381966
Dallas,32.7937,-96.7662,United States,5733259
Philadelphia,40.0076,-75.134,United States,5637884
Houston,29.7868,-95.3905,United States,5446468
Washington,38.9047,-77.0163,United States,5289420
Atlanta,33.7626,-84.4228,United States,5228750
Boston,42.3188,-71.0846,United States,4637537
Phoenix,33.5722,-112.0891,United States,4081849
Seattle,47.6211,-122.3244,United States,3643765
San Francisco,37.7562,-122.443,United States,3603761
Detroit,42.3834,-83.1024,United States,3522206
San Diego,32.8312,-117.1226,United States,3210314
Minneapolis,44.9635,-93.2678,United States,2926757
Tampa,27.9937,-82.4454,United States,2804240
Denver,39.7621,-104.8759,United States,2787266
Brooklyn,40.6501,-73.9496,United States,2629150
Queens,40.7498,-73.7976,United States,2333054
Tokyo,35.685,139.7514,Japan,35676000
Ōsaka,34.75,135.4601,Japan,11294000
Yokohama,35.32,139.58,Japan,3697894
Nagoya,35.155,136.915,Japan,3230000
Fukuoka,33.595,130.41,Japan,2792000
Sapporo,43.075,141.34,Japan,2544000
Sendai,38.2871,141.0217,Japan,2250000
Hiroshima,34.3878,132.4429,Japan,2045000
Kyoto,35.03,135.75,Japan,1805000
Kōbe,34.68,135.17,Japan,1528478
Kawasaki,35.53,139.705,Japan,1437266
Kitakyūshū,33.8704,130.82,Japan,997536
Hamamatsu,34.7181,137.7327,Japan,977023
Naha,26.2072,127.673,Japan,905238
Okayama,34.672,133.9171,Japan,866092
Kumamoto,32.8009,130.7006,Japan,718232
Shizuoka,34.9858,138.3854,Japan,701561
Utsunomiya,36.55,139.87,Japan,667752
Nagano,36.65,138.17,Japan,594311
Hachiōji,35.6577,139.3261,Japan,579399
